_id,Building Complex Name,Building Address List,Ward,Provider Type,Provider Name,Provider Website,Building Type,Building Street Number,Building Address,Building City,Building Postal Code,Senior Building,Room,Bachelor,One Bedroom,Two Bedroom,Three Bedroom,Four Bedroom,Five Bedroom,Six Bedroom,Balcony,Communal Balcony,Air Conditioning,Elevators,Stairs Only,Hydro Included,Parking,Wheelchair Accessible Building,Wheelchair Accessible Units,Modified Unit,Smoke Free,Terminally Ill,Building Mandate1,Building Mandate2,Building Image,Longitude,Latitude
1,Lakeshore Gardens Co-Operative Homes Inc Townhouses,25 Bradham Path,3,CO-OP,Lakeshore Gardens Co-Operative Homes Inc.,None,Townhouse/ Walk-up,10,Garnett Janes Road,Toronto,M8V 3Z2,No,No,No,Yes,Yes,Yes,Yes,No,No,Yes,No,No,Yes,No,No,Yes,Yes,Yes,No,No,Yes,None,None,25-Bradham-Path-BuildingExterior.jpg,-79.50886112,43.60176315
2,Maurice Coulter Housing Co-Operative,170-176 John Garland Boulevard,1,CO-OP,Maurice Coulter Housing Co-Operative,None,Townhouse/ Walk-up,174,John Garland Boulevard,Toronto,M9V 5G1,No,No,No,Yes,Yes,Yes,Yes,No,No,Yes,No,No,No,No,No,Yes,Yes,Yes,Yes,No,Yes,None,None,170-176-John-Garland-Boulevard-BuildingExterior.jpg,-79.587668,43.73334809
3,Maurice Coulter Housing Co-Operative Apartments,174 John Garland Boulevard,1,CO-OP,Maurice Coulter Housing Co-Operative,None,High Rise,174,John Garland Boulevard,Toronto,M9V 5G1,No,No,No,Yes,Yes,Yes,Yes,No,No,Yes,No,No,No,No,No,Yes,Yes,Yes,Yes,No,Yes,None,None,174-John-Garland-Boulevard-BuildingExterior.jpg,-79.587668,43.73334809
4,Nakiska Co-Operative Homes Inc. Apartments,3078 Lake Shore Boulevard West,3,CO-OP,Nakiska Co-Operative Homes Inc.,None,High Rise,3078,Lake Shore Boulevard West,Toronto,M8V 3Y7,No,No,No,Yes,Yes,Yes,Yes,No,No,Yes,No,No,Yes,No,No,Yes,Yes,Yes,Yes,No,Yes,None,None,3078-Lake-Shore-Boulevard-West-BuildingExterior.jpg,-79.51236326,43.59961257
5,Nakiska Co-Operative Homes Inc. Townhouses,140-170 Thirteenth Street,3,CO-OP,Nakiska Co-Operative Homes Inc.,None,Townhouse/ Walk-up,3078,Lake Shore Boulevard West,Toronto,M8V 3Y7,No,No,No,Yes,Yes,Yes,Yes,No,No,Yes,No,No,Yes,No,No,Yes,Yes,Yes,Yes,No,Yes,None,None,140-170-Thirteenth-Street-BuildingExterior.jpg,-79.51236326,43.59961257
6,Robert Cooke Co-Operative Homes,22 Bradham Path,3,CO-OP,Robert Cooke Co-Operative Homes,None,Townhouse/ Walk-up,20,Garnett Janes Road,Toronto,M8V 3Z1,No,No,No,Yes,Yes,Yes,Yes,No,No,No,No,No,Yes,No,No,Yes,Yes,Yes,Yes,No,Yes,None,None,22-Bradham-Path-BuildingExterior.jpg,-79.5091621,43.60172237
7,1 Church Street,1 Church Street,10,TCHC,Toronto Community Housing ,https://www.torontohousing.ca/rent,High Rise,1,Church Street,Toronto,M5E 1Y6,No,No,No,Yes,Yes,Yes,Yes,No,No,No,No,No,Yes,No,No,Yes,Yes,Yes,No,No,Yes,None,None,1-Church-Street-BuildingExterior.jpg,-79.37286971,43.64703285
8,1 Oak  Apartments,1 Oak Street,13,TCHC,Toronto Community Housing ,https://www.torontohousing.ca/rent,High Rise,1,Oak Street,Toronto,M5A 0A1,No,No,No,No,Yes,Yes,Yes,Yes,No,None,None,None,None,None,None,None,None,Yes,None,None,None,None,None,1-Oak-Street-BuildingExterior.jpg,-79.36606947,43.66064053
9,Robert Cooke Co-Operative Homes Apartments,20 Garnett Janes Road||45 Etta Whylie,3,CO-OP,Robert Cooke Co-Operative Homes,None,High Rise|Low Rise,20,Garnett Janes Road,Toronto,M8V 3Z1,No,No,No,Yes,Yes,Yes,Yes,No,No,No,No,No,Yes,No,No,Yes,Yes,Yes,Yes,No,Yes,None,None,20-Garnett-Janes-Road-BuildingExterior.jpg,-79.5091621,43.60172237
10,1 Oak  Stacked Rowhouses,35-53 Cole Street||39-67 Oak Street||95-107 Regent Street,13,TCHC,Toronto Community Housing ,https://www.torontohousing.ca/rent,Townhouse/ Walk-up,1,Oak Street,Toronto,M5A 0A1,No,No,No,No,Yes,Yes,Yes,Yes,No,None,None,None,None,None,None,None,None,Yes,None,None,None,None,None,35-53-Cole-Street-BuildingExterior.jpg,-79.36606947,43.66064053
11,Moshav Noam Co-Op,525 Lawrence Avenue West,8,CO-OP,Moshav Noam Co-Op,None,High Rise,525,Lawrence Avenue West,Toronto,M6A 3E1,No,No,No,Yes,Yes,Yes,Yes,No,No,Yes,No,No,Yes,No,No,Yes,Yes,Yes,Yes,No,No,None,None,525-Lawrence-Avenue-West-BuildingExterior.jpg,-79.43142514,43.71861177
12,1087 Davenport Road,1087 Davenport Road,12,TCHC,Toronto Community Housing ,https://www.torontohousing.ca/rent,Low Rise,1087,Davenport Road,Toronto,M6G 2C3,No,No,No,No,Yes,No,No,No,No,No,No,No,No,Yes,No,Yes,No,No,No,No,Yes,None,None,1087-Davenport-Road-BuildingExterior.jpg,-79.42858269,43.67463052
13,11 Randolph Avenue,11 Randolph Avenue,9,TCHC,Toronto Community Housing ,https://www.torontohousing.ca/rent,High Rise,11,Randolph Avenue,Toronto,M6P 4G3,No,No,No,Yes,Yes,Yes,No,No,No,Yes,Yes,No,Yes,No,No,Yes,Yes,Yes,Yes,No,Yes,None,None,11-Randolph-Avenue-BuildingExterior.jpg,-79.45021102,43.65829898
14,111 Chestnut Street,111 Chestnut Street,10,TCHC,Toronto Community Housing ,https://www.torontohousing.ca/rent,High Rise,111,Chestnut Street,Toronto,M5G 2J1,No,No,No,Yes,Yes,Yes,No,No,No,No,No,No,Yes,No,No,Yes,Yes,Yes,No,No,Yes,None,None,111-Chestnut-Street-BuildingExterior.jpg,-79.38558022,43.65483797
15,1167 Queen Street East,1167 Queen Street East,14,TCHC,Toronto Community Housing ,https://www.torontohousing.ca/rent,Low Rise,1167,Queen Street East,Toronto,M4M 1L5,No,No,No,Yes,Yes,Yes,No,No,No,Yes,No,No,Yes,No,No,No,Yes,Yes,No,No,Yes,None,None,1167-Queen-Street-East-BuildingExterior.jpg,-79.33288365,43.66249095
16,Highway Terraces Apartments,2314 Islington Avenue,1,PNP,Rexdale Presbyterian Senior Citizens Corporation,None,High Rise,2314,Islington Avenue,Toronto,M9W 5W9,Yes,No,Yes,Yes,No,No,No,No,No,No,No,No,No,No,No,Yes,Yes,No,No,No,Yes,Senior 59+,None,2314-Islington-Avenue-BuildingExterior.jpg,-79.55625735,43.7162998
17,Rakoczi Villa I,747 St. Clair Avenue West,12,PNP,Rakoczi Villa Non Profit Housing Corp.,None,High Rise,747,St. Clair Avenue West,Toronto,M6C 4A4,Yes,No,No,Yes,Yes,No,No,No,No,Yes,No,No,Yes,No,No,Yes,No,No,No,No,No,"Senior 59+, Hungarian ",None,747-St.Clair-Avenue-West-BuildingExterior.jpg,-79.42821228,43.6809372
18,133 Broadway Avenue,133 Broadway Avenue,12,TCHC,Toronto Community Housing ,https://www.torontohousing.ca/rent,Low Rise,133,Broadway Avenue,Toronto,M4P 1V5,No,No,Yes,Yes,Yes,No,No,No,No,None,None,None,None,None,None,None,None,No,None,None,None,None,None,133-Broadway-Avenue-BuildingExterior.jpg,-79.39189355,43.71048205
19,136 Perth Avenue,136A-152Z Perth Avenue,9,TCHC,Toronto Community Housing ,https://www.torontohousing.ca/rent,Townhouse/ Walk-up,136,Perth Avenue,Toronto,M6P 4G5,No,No,No,Yes,Yes,Yes,No,No,No,Yes,No,Yes,No,Yes,No,Yes,No,No,No,No,Yes,None,None,136-140-Perth-Avenue-BuildingExterior.jpg,-79.44953874,43.65784312
20,139 Stephenson Avenue,121-143C Stephenson Avenue,19,TCHC,Toronto Community Housing ,https://www.torontohousing.ca/rent,Townhouse/ Walk-up,139,Stephenson Avenue,Toronto,M4C 1G2,No,No,No,Yes,Yes,Yes,No,No,No,No,No,No,No,No,No,No,Yes,No,No,No,Yes,None,None,121-143C-Stephenson-Avenue-BuildingExterior.jpg,-79.30233448,43.6867593
21,Tamil Co-Operative Homes Inc,20 Wade Avenue,9,CO-OP,Tamil Co-Operative Homes Inc,None,High Rise,20,Wade Avenue,Toronto,M6H 4H3,No,No,No,Yes,Yes,Yes,Yes,No,No,Yes,No,No,Yes,No,Yes,Yes,No,Yes,No,No,Yes,None,None,20-Wade-Avenue-BuildingExterior.jpg,-79.44411142,43.65922849
22,140 The Esplanade,140 The Esplanade,13,TCHC,Toronto Community Housing ,https://www.torontohousing.ca/rent,High Rise,140,The Esplanade,Toronto,M5A 4A5,No,No,Yes,Yes,Yes,Yes,Yes,No,No,No,No,No,Yes,No,No,No,No,No,No,No,Yes,None,None,140-The-Esplanade-BuildingExterior.jpg,-79.37025666,43.64855702
23,1400 Bathurst Street,1400 Bathurst Street,12,TCHC,Toronto Community Housing ,https://www.torontohousing.ca/rent,Low Rise,1400,Bathurst Street,Toronto,M5R 3S5,No,No,Yes,Yes,Yes,No,No,No,No,No,No,No,Yes,No,No,Yes,Yes,Yes,No,No,Yes,None,None,1400-Bathurst-Street-BuildingExterior.jpg,-79.41806192,43.68064827
24,170 Fairview Apartments,170 Fairview Mall Dr,17,TCHC,Toronto Community Housing ,https://www.torontohousing.ca/rent,High Rise,170,Fairview Mall Dr,Toronto,M2J 0G3,No,No,No,No,Yes,Yes,Yes,No,No,Yes,None,Yes,Yes,None,None,Yes,Yes,Yes,Yes,None,No,None,None,None,-79.34275,43.78023
25,170 Fairview Townhouses,15-17 Allenbury Gdns,17,TCHC,Toronto Community Housing ,https://www.torontohousing.ca/rent,Townhouse/ Walk-up,170,Fairview Mall Dr,Toronto,M2J 0G3,No,No,No,No,Yes,Yes,Yes,No,No,None,None,Yes,None,Yes,None,Yes,None,No,No,None,No,None,None,None,-79.34275,43.78023
26,180 Sackville Street Apartments,180 Sackville Street,13,TCHC,Toronto Community Housing ,https://www.torontohousing.ca/rent,High Rise,180,Sackville Street,Toronto,M5A 0C5,No,No,No,Yes,Yes,Yes,No,No,No,No,No,No,Yes,No,No,Yes,No,Yes,Yes,No,No,None,None,180-Sackville-Street-BuildingExterior.jpg,-79.3626161,43.65852467
27,180 Sackville Street Townhouses,23-37 Regent Street||43-57 St. David Walk||8-22 Sutton Avenue,13,TCHC,Toronto Community Housing ,https://www.torontohousing.ca/rent,Townhouse/ Walk-up,8,Sutton Avenue,Toronto,M5A 0G8,No,No,No,No,No,No,Yes,Yes,No,None,None,None,None,None,None,None,None,No,None,None,None,None,None,23-37-Regent-Street-BuildingExterior.jpg,-79.36341682,43.65817259
28,190 John Street,190 John Street,10,TCHC,Toronto Community Housing ,https://www.torontohousing.ca/rent,Low Rise,190,John Street,Toronto,M5T 3E5,No,No,No,Yes,Yes,Yes,No,No,No,No,No,No,Yes,No,No,Yes,Yes,Yes,No,No,Yes,None,None,190-John-Street-BuildingExterior.jpg,-79.39187826,43.65096189
29,21 St Joseph Street,21 St Joseph Street,13,TCHC,Toronto Community Housing ,https://www.torontohousing.ca/rent,Low Rise,21,St Joseph Street,Toronto,M4Y 1J8,No,No,No,Yes,Yes,No,No,No,No,No,No,No,Yes,No,No,No,Yes,Yes,No,No,Yes,None,None,21-St-Joseph-Street-BuildingExterior.jpg,-79.38638814,43.66563543
30,22 O'Hara Avenue,22 O'Hara Avenue,4,TCHC,Toronto Community Housing ,https://www.torontohousing.ca/rent,Low Rise,22,O'Hara Avenue,Toronto,M6K 2P8,No,No,No,Yes,Yes,Yes,No,No,No,No,No,No,No,Yes,No,Yes,No,No,No,No,Yes,None,None,22-O'Hara-Avenue-BuildingExterior.jpg,-79.43482964,43.64197585
31,220 Eglinton Avenue East,220 Eglinton Avenue East,12,TCHC,Toronto Community Housing ,https://www.torontohousing.ca/rent,High Rise,220,Eglinton Avenue East,Toronto,M4P 1K4,No,No,Yes,Yes,No,No,No,No,No,None,None,None,None,None,None,None,None,No,None,None,None,None,None,220-Eglinton-Avenue-East-BuildingExterior.jpg,-79.39162503,43.70839677
32,2265 Jane Street,2265 Jane Street,6,TCHC,Toronto Community Housing ,https://www.torontohousing.ca/rent,Townhouse/ Walk-up,2265,Jane Street,Toronto,M3M 1A6,No,No,No,No,No,Yes,Yes,No,No,No,No,No,No,No,No,No,No,No,No,No,Yes,None,None,2265-Jane-Street-BuildingExterior.jpg,-79.5095131,43.72766695
33,230 Sackvile Apartments,230 Sackville St,13,TCHC,Toronto Community Housing ,https://www.torontohousing.ca/rent,Low Rise,230,Sackville Street,Toronto,M5A 0B8,No,No,No,Yes,Yes,Yes,No,No,No,None,None,None,None,None,None,None,None,Yes,None,None,None,None,None,230-Sackville-Street-BuildingExterior.jpg,-79.36307619,43.65969683
34,230 Sackvile Townhouses,26-38 St. Bartholomew St,13,TCHC,Toronto Community Housing ,https://www.torontohousing.ca/rent,Townhouse/ Walk-up,230,Sackville Street,Toronto,M5A 0B8,No,No,No,Yes,Yes,Yes,No,No,No,None,None,None,None,None,None,None,None,Yes,None,None,None,None,None,26-38-St-Bartholomew-Street-East-BuildingExterior.jpg,-79.36307619,43.65969683
35,2390 Gerrard Street East,2390 Gerrard Street East,19,TCHC,Toronto Community Housing ,https://www.torontohousing.ca/rent,Low Rise,2390,Gerrard Street East,Toronto,M4E 2E1,No,No,No,Yes,Yes,Yes,No,No,No,No,No,No,No,No,No,No,No,No,No,No,Yes,None,None,2390-Gerrard-Street-East-BuildingExterior.jpg,-79.2902837,43.68632299
36,246 Sackville  Apartments,246 Sackville Street,13,TCHC,Toronto Community Housing ,https://www.torontohousing.ca/rent,High Rise,246,Sackville Street,Toronto,M5A 3S4,No,No,No,Yes,Yes,Yes,Yes,Yes,No,None,None,None,None,None,None,None,None,Yes,None,None,None,None,None,246-Sackville-Street-BuildingExterior.jpg,-79.36336914,43.66030863
37,246 Sackville  Rowhouses,61-67 Cole Street,13,TCHC,Toronto Community Housing ,https://www.torontohousing.ca/rent,Townhouse/ Walk-up,246,Sackville Street,Toronto,M5A 3S4,No,No,No,Yes,Yes,Yes,Yes,Yes,No,None,None,None,None,None,None,None,None,Yes,None,None,None,None,None,61-67-Cole-Street-BuildingExterior.jpg,-79.36336914,43.66030863
38,246 Sackville  Stacked Rowhouses,37-63 Arnold Avenue||42-68 Regent Street,13,TCHC,Toronto Community Housing ,https://www.torontohousing.ca/rent,Townhouse/ Walk-up,246,Sackville Street,Toronto,M5A 3S4,No,No,No,Yes,Yes,Yes,Yes,Yes,No,None,None,None,None,None,None,None,None,Yes,None,None,None,None,None,37-63-Arnold-Avenue-BuildingExterior.jpg,-79.36336914,43.66030863
39,252 Sackville Street,252 Sackville Street,13,TCHC,Toronto Seniors Housing Corporation ,https://www.torontohousing.ca/rent,High Rise,252,Sackville Street,Toronto,M5A 3E9,Yes,No,No,Yes,Yes,No,No,No,No,None,None,None,None,None,None,None,None,Yes,None,None,None,Senior 59+,None,252-Sackville-Street-BuildingExterior.jpg,-79.36342677,43.66050088
40,257 Dundas Street East,257 Dundas Street East,13,TCHC,Toronto Community Housing ,https://www.torontohousing.ca/rent,Townhouse/ Walk-up,257,Dundas Street East,Toronto,M5A 2R9,No,No,Yes,Yes,No,No,No,No,No,None,None,None,None,None,None,None,None,No,None,None,None,None,None,257-Dundas-Street-East-BuildingExterior.jpg,-79.37210568,43.65803045
41,2585 Jane Street,2585 Jane Street,6,TCHC,Toronto Community Housing ,https://www.torontohousing.ca/rent,Townhouse/ Walk-up,2585,Jane Street,Toronto,M3L 1R8,No,No,No,No,Yes,Yes,No,No,No,No,No,No,No,No,No,Yes,No,No,No,No,Yes,None,None,2585-Jane-Street-BuildingExterior.jpg,-79.51066059,43.73413025
42,261 Jarvis Street,261 Jarvis Street,13,TCHC,Toronto Community Housing,https://www.torontohousing.ca/rent,High Rise,261,Jarvis Street,Toronto,M5B 2N9,No,No,Yes,Yes,Yes,Yes,No,No,No,Yes,No,No,Yes,No,No,No,Yes,Yes,No,No,Yes,None,None,261-Jarvis-Street-BuildingExterior.jpg,-79.37459565,43.657929
43,28 Broadway Avenue,28 Broadway Avenue,15,TCHC,Toronto Community Housing ,https://www.torontohousing.ca/rent,Low Rise,28,Broadway Avenue,Toronto,M4P 1T5,No,No,Yes,Yes,Yes,No,No,No,No,None,None,None,None,None,None,None,None,No,None,None,None,None,None,28-Broadway-Avenue-BuildingExterior.jpg,-79.39712475,43.71043908
44,29 Louvain Avenue,29 Louvain Avenue,14,TCHC,Toronto Community Housing ,https://www.torontohousing.ca/rent,Low Rise,29,Louvain Avenue,Toronto,M4M 3M7,No,No,No,Yes,Yes,Yes,No,No,No,No,No,No,Yes,No,No,No,Yes,Yes,No,No,Yes,None,None,29-Louvain-Avenue-BuildingExterior.jpg,-79.33692045,43.66254394
45,40 Trefann Street,40 Trefann Street,13,TCHC,Toronto Community Housing ,https://www.torontohousing.ca/rent,Detached,40,Trefann Street,Toronto,M4X 1P6,No,No,No,No,Yes,No,No,No,No,No,No,No,No,No,No,No,No,No,No,No,Yes,None,None,40-Trefann-Street-BuildingExterior.jpg,-79.36389846,43.65689368
46,470 Melita Apartments,470 Melita Crescent,12,TCHC,Toronto Community Housing ,https://www.torontohousing.ca/rent,High Rise,470,Melita Crescent,Toronto,M6G 3Y1,No,No,Yes,Yes,Yes,No,No,No,No,No,No,No,Yes,No,No,Yes,Yes,Yes,No,No,Yes,None,None,470-Melita-Crescent-BuildingExterior.jpg,-79.42665329,43.67225343
47,470 Melita Townhouses,460-464B Melita Crescent||1149-1153B Shaw Street||129-137B Wychcrest Avenue,12,TCHC,Toronto Community Housing ,https://www.torontohousing.ca/rent,Townhouse/ Walk-up,470,Melita Crescent,Toronto,M6G 3Y1,No,No,Yes,Yes,Yes,No,No,No,No,No,No,No,Yes,No,No,Yes,Yes,Yes,No,No,Yes,None,None,460-464B-Melita-Crescent-BuildingExterior.jpg,-79.42665329,43.67225343
48,5 Carling Avenue,5 Carling Avenue||21-25 Irene Avenue,11,TCHC,Toronto Community Housing ,https://www.torontohousing.ca/rent,Low Rise,5,Carling Avenue,Toronto,M6G 3R9,No,No,No,Yes,Yes,No,No,No,No,No,No,No,No,Yes,No,Yes,No,No,No,No,Yes,None,None,5-Carling-Avenue-BuildingExterior.jpg,-79.42463975,43.66274902
49,52 Jones Avenue,52-54 Jones Avenue,14,TCHC,Toronto Community Housing ,https://www.torontohousing.ca/rent,Low Rise,52,Jones Avenue,Toronto,M4M 2Z8,No,No,No,Yes,Yes,Yes,No,No,No,None,None,None,None,None,None,None,None,No,None,None,None,None,None,52-54-Jones-Avenue-BuildingExterior.jpg,-79.33365561,43.66388669
50,520 Kingston Road,520 Kingston Road,19,TCHC,Toronto Community Housing ,https://www.torontohousing.ca/rent,High Rise,520,Kingston Road,Toronto,M4L 1V2,No,No,Yes,Yes,Yes,Yes,No,No,No,No,No,No,No,No,No,No,Yes,Yes,No,No,Yes,None,None,520-Kingston-Road-BuildingExterior.jpg,-79.30244937,43.67825586
51,530 Kingston Road,530 Kingston Road,19,TCHC,Toronto Community Housing ,https://www.torontohousing.ca/rent,Low Rise,530,Kingston Road,Toronto,M4L 1V4,No,No,Yes,Yes,Yes,Yes,No,No,No,Yes,No,No,No,No,No,No,No,No,No,No,Yes,None,None,530-Kingston-Road-BuildingExterior.jpg,-79.3019027,43.67827397
52,63 Mitchell Avenue,63 Mitchell Avenue,10,TCHC,Toronto Community Housing ,https://www.torontohousing.ca/rent,Low Rise,63,Mitchell Avenue,Toronto,M6J 1C1,No,No,No,No,No,Yes,No,No,No,No,No,No,No,Yes,No,No,No,No,No,No,Yes,None,None,63-Mitchell-Avenue-BuildingExterior.jpg,-79.4077044,43.64481755
53,8 & 12 Broadway,8-12 Broadway Avenue,15,TCHC,Toronto Community Housing ,https://www.torontohousing.ca/rent,High Rise,8,Broadway Avenue,Toronto,M4P 3G7,No,No,Yes,Yes,Yes,Yes,Yes,No,No,No,No,No,Yes,No,No,Yes,Yes,Yes,No,No,Yes,None,None,8-Broadway-Avenue-BuildingExterior.jpg,-79.39831845,43.70994129
54,909 St Clair Avenue West,909 St Clair Avenue West,9,TCHC,Toronto Community Housing ,https://www.torontohousing.ca/rent,Low Rise,909,St Clair Avenue West,Toronto,M6C 1C7,No,No,No,No,Yes,No,No,No,No,No,No,No,No,Yes,No,No,No,No,No,No,Yes,None,None,909-St-Clair-Avenue-West-BuildingExterior.jpg,-79.43379479,43.67973915
55,Kipling/Mount Olive,1-27 Mount Olive Drive||53-55 Silverstone Drive,1,TCHC,Toronto Community Housing,https://www.torontohousing.ca/rent,Townhouse/ Walk-up,1,Mount Olive Drive,Toronto,M9V 2C6,No,No,No,No,Yes,Yes,No,No,No,No,No,No,No,No,No,Yes,No,No,No,No,Yes,None,None,1-27-Mount-Olive-Drive-BuildingExterior.jpg,-79.58410567,43.74635836
56,92 Carlton Street,92 Carlton Street,13,TCHC,Toronto Community Housing ,https://www.torontohousing.ca/rent,High Rise,92,Carlton Street,Toronto,M5B 1M5,No,No,Yes,Yes,Yes,Yes,Yes,No,No,No,No,No,Yes,No,No,Yes,No,No,No,No,Yes,None,None,92-Carlton-Street-BuildingExterior.jpg,-79.37821393,43.66229438
57,Adanac Apartments,140 Adanac Drive,20,TCHC,Toronto Community Housing ,https://www.torontohousing.ca/rent,High Rise,140,Adanac Drive,Toronto,M1N 2E8,No,No,Yes,Yes,No,No,No,No,No,Yes,No,No,Yes,No,No,Yes,No,No,No,No,Yes,None,None,140-Adanac-Drive-BuildingExterior.jpg,-79.22695826,43.74067313
58,Agnes McPhail Apartments,444 Lumsden Avenue,19,TCHC,Toronto Community Housing,https://www.torontohousing.ca/rent,High Rise,444,Lumsden Avenue,Toronto,M4C 2L8,No,No,No,Yes,Yes,Yes,No,No,No,Yes,No,No,Yes,No,No,Yes,Yes,No,No,No,Yes,None,None,444-Lumsden-Avenue-BuildingExterior.jpg,-79.30259851,43.69575034
59,Agnes Mcphail Townhouses,404-442 Lumsden Avenue,19,TCHC,Toronto Community Housing,https://www.torontohousing.ca/rent,Townhouse/ Walk-up,444,Lumsden Avenue,Toronto,M4C 2L8,No,No,No,Yes,Yes,Yes,No,No,No,Yes,No,No,Yes,No,No,Yes,Yes,No,No,No,Yes,None,None,404-442-Lumsden-Avenue-BuildingExterior.jpg,-79.30259851,43.69575034
60,Bathurst Prince Charles Housing Project,3270 Bathurst Street,8,PNP,National Council Of Jewish Women,None,High Rise,3270,Bathurst Street,Toronto,M6A 3A8,No,No,No,Yes,Yes,Yes,No,No,No,No,No,No,No,No,No,Yes,Yes,Yes,No,No,Yes,None,None,3270-Bathurst-Street-BuildingExterior.jpg,-79.43146212,43.72423974
61,B'Nai Brith Upper Canada Lodge,4266 Bathurst Street,6,PNP,Upper Canada Lodge B'Nai Brith Seniors,None,High Rise,4266,Bathurst Street,Toronto,M3H 5Y7,Yes,No,No,Yes,Yes,No,No,No,No,Yes,No,No,No,No,No,Yes,No,No,No,No,Yes,Senior 59+,None,4266-Bathurst-Street-BuildingExterior.jpg,-79.43803092,43.75187435
62,Caboto Terrace Seniors Apartments,3050 Dufferin Street,8,PNP,Italian Canadian Benevolent Seniors Apartment Corporation,None,High Rise,3050,Dufferin Street,Toronto,M6B 4G3,Yes,No,No,Yes,No,No,No,No,No,Yes,No,No,Yes,No,No,Yes,Yes,Yes,No,No,No,Senior 59+,None,3050-Dufferin-Street-BuildingExterior.jpg,-79.45516221,43.71315687
63,Chapel Court Apartments,18 Thorncliffe Park Drive,15,PNP,Thorncliffe Chapel Housing Corporation,None,High Rise,18,Thorncliffe Park Drive,Toronto,M4H 1H4,No,No,No,Yes,Yes,Yes,No,No,No,No,No,No,No,No,No,Yes,Yes,Yes,No,No,Yes,None,None,18-Thorncliffe-Park-Drive-BuildingExterior.jpg,-79.34699157,43.70430741
64,Jubilee Centre,256 Sheldon Avenue,3,PNP,Church Of Atonement Alderwood Senior Citizens Project,None,High Rise,256,Sheldon Avenue,Toronto,M8W 4X8,Yes,No,No,Yes,Yes,No,No,No,No,No,No,No,No,No,No,Yes,Yes,Yes,No,No,No,Senior 59+,None,256-Sheldon-Avenue-BuildingExterior.jpg,-79.54650659,43.60848012
65,Mutually Assisting Residential Community,6091 Bathurst Street,18,PNP,Kehilla Residential Programme,None,High Rise,6091,Bathurst Street,Toronto,M2R 2V7,No,No,No,Yes,Yes,Yes,No,No,No,Yes,No,No,Yes,No,No,Yes,Yes,Yes,Yes,No,No,None,None,6091-Bathurst-Street-BuildingExterior.jpg,-79.44563807,43.78716075
66,Richview Residence 1 & 11,105 Clement Road||1540 Kipling Avenue,2,PNP,Richview Baptist Foundation,None,High Rise,1540,Kipling Avenue,Toronto,M9R 4C6,Yes,No,No,Yes,Yes,No,No,No,No,No,No,No,Yes,No,No,Yes,Yes,Yes,Yes,No,No,Senior 59+,None,1540-Kipling-Avenue-BuildingExterior.jpg,-79.55295817,43.6804704
67,Stanchester Place,15 Oxford Drive,5,PNP,Stanchester Charitable Foundation,None,High Rise,15,Oxford Drive,Toronto,M6M 5C4,No,No,No,Yes,Yes,Yes,No,No,No,Yes,No,No,No,No,No,Yes,Yes,Yes,No,No,Yes,None,None,15-Oxford-Drive-BuildingExterior.jpg,-79.49135285,43.68892546
68,Innstead Co-Operative Inc.,152 Ashdale Avenue||56 Harriet Street||66-184 Hastings Avenue||29-160 Hiawatha Road||239 Highfield Road||161 Leslie Street||41 Redwood Avenue||336-382 Woodfield Road||2 Sandford Avenue||72-386 Ashdale Avenue||18 Athletic Avenue||7-110 Billings Avenue||6-8 Bloomfield Avenue||6-8 Cherry Nook Gardens||88 Curzon Street||171-204 Hastings Avenue||49-126 Hiawatha Road||243-311 Highfield Road||172 Jones Avenue||9-83 Kent Road||37-59 Kerr Road||5-24 Prust Avenue||407 Rhodes Avenue||21 Richard Avenue||326-363 Woodfield Road,14,CO-OP,Innstead Co-Operative Inc,None,Detached|Duplex|Semi-Detached,1326,Gerrard Street East,Toronto,M4L 1Z1,No,No,Yes,Yes,Yes,Yes,Yes,Yes,No,None,None,None,None,None,None,None,None,No,None,None,None,None,None,None,-79.32550795,43.67179046
69,Innstead Co-Operative Inc. Walkup,5 Fairford Avenue||182 Hiawatha Road||444 Woodfield Road,14,CO-OP,Innstead Co-Operative Inc,None,Townhouse/ Walk-up,1326,Gerrard Street East,Toronto,M4L 1Z1,No,No,Yes,Yes,Yes,Yes,Yes,Yes,No,None,None,None,None,None,None,None,None,No,None,None,None,None,None,None,-79.32550795,43.67179046
70,Albion/Shendale,275 Albion Road||1 Shendale Drive,1,TCHC,Toronto Community Housing,https://www.torontohousing.ca/rent,Townhouse/ Walk-up,275,Albion Road,Toronto,M9W 2N8,No,No,No,No,Yes,Yes,Yes,No,No,No,No,No,No,No,No,Yes,No,No,No,No,Yes,None,None,275-Albion-Road-BuildingExterior.jpg,-79.54709226,43.7216092
71,Alexandra Park Apartments,91 Augusta Avenue,10,TCHC,Toronto Seniors Housing Corporation ,https://www.torontohousing.ca/rent,High Rise,91,Augusta Avenue,Toronto,M5T 2L2,Yes,No,Yes,Yes,No,No,No,No,No,No,No,No,Yes,No,No,Yes,No,No,No,No,Yes,Senior 59+,None,91-Augusta-Avenue-BuildingExterior.jpg,-79.40039796,43.65072107
72,Amansie Place,2350 Finch Avenue West,7,TCHC,Toronto Community Housing ,https://www.torontohousing.ca/rent,High Rise,2350,Finch Avenue West,Toronto,M9M 2C7,No,No,Yes,Yes,Yes,Yes,Yes,No,No,None,None,None,None,None,None,None,None,No,None,None,None,None,None,2350-Finch-Avenue-West-BuildingExterior.jpg,-79.5439668,43.75219947
73,Arleta Manor Apartments,11 Arleta Avenue||7 Arleta Avenue,7,TCHC,Toronto Seniors Housing Corporation ,https://www.torontohousing.ca/rent,High Rise|Low Rise,7,Arleta Avenue,Toronto,M3L 2E3,Yes,No,Yes,Yes,No,No,No,No,No,Yes,No,No,Yes,No,No,Yes,Yes,No,No,No,Yes,Senior 59+,None,11-Arleta-Avenue-BuildingExterior.jpg,-79.50087162,43.74201
74,Asquith Park Project,40 Asquith Avenue,11,TCHC,Toronto Community Housing ,https://www.torontohousing.ca/rent,High Rise,40,Asquith Avenue,Toronto,M4W 1J6,No,No,Yes,Yes,Yes,No,No,No,No,Yes,No,No,No,No,No,No,Yes,Yes,No,No,Yes,None,None,40-Asquith-Avenue-BuildingExterior.jpg,-79.38519572,43.67191084
75,Atkinson Co-Op Apartments,73 Augusta Square||170 Vanauley Walk,10,CO-OP,Toronto Community Housing ,None,High Rise|Low Rise,71,Augusta Square,Toronto,M5T 2K5,No,No,No,Yes,Yes,Yes,Yes,Yes,No,Yes,No,No,Yes,No,Yes,Yes,No,No,No,No,Yes,None,None,None,-79.40011676,43.65008592
76,Atkinson Co-Op Rowhouses,39-49 Augusta Avenue||95-119 Denison Avenue||529-599 Dundas Street West||2-8 Felician Place||170-174 Grange Avenue||100-156 Grange Court||70-138 Napanee Court||35-56 Vanauley Court||57-74 Vanauley Square||76-188 Vanauley Walk||2-23 Whitecourt Place||20-28 Willison Place,10,CO-OP,Toronto Community Housing ,None,Townhouse/ Walk-up,71,Augusta Square,Toronto,M5T 2K5,No,No,No,Yes,Yes,Yes,Yes,Yes,No,Yes,No,No,Yes,No,Yes,Yes,No,No,No,No,Yes,None,None,None,-79.40011676,43.65008592
77,Atkinson Co-Op Townhouses,581 Dundas Street West||78-106 Vanauley Walk,10,CO-OP,Toronto Community Housing ,None,Townhouse/ Walk-up,71,Augusta Square,Toronto,M5T 2K5,No,No,No,Yes,Yes,Yes,Yes,Yes,No,Yes,No,No,Yes,No,Yes,Yes,No,No,No,No,Yes,None,None,None,-79.40011676,43.65008592
78,Balsam Avenue,9-11 Balsam Avenue,19,TCHC,Toronto Community Housing ,https://www.torontohousing.ca/rent,Low Rise,9,Balsam Avenue,Toronto,M4E 3B3,No,No,No,Yes,Yes,No,No,No,No,No,No,No,No,No,Yes,Yes,No,No,No,No,Yes,None,None,9-11-Balsam-Avenue-BuildingExterior.jpg,-79.28866583,43.66978682
79,Bathurst Place,3036 Bathurst Street,8,TCHC,Toronto Seniors Housing Corporation ,https://www.torontohousing.ca/rent,High Rise,3036,Bathurst Street,Toronto,M6B 4K1,Yes,No,No,Yes,No,No,No,No,No,Yes,No,No,Yes,No,No,Yes,Yes,Yes,No,No,Yes,Senior 59+,None,3036-Bathurst-Street-BuildingExterior.jpg,-79.4299194,43.71855327
80,Bathurst Quay Apartments,25 Bishop Tutu Boulevard,10,TCHC,Toronto Community Housing ,https://www.torontohousing.ca/rent,High Rise,25,Bishop Tutu Boulevard,Toronto,M5V 2Z9,No,No,No,Yes,Yes,Yes,Yes,No,No,Yes,No,No,No,No,No,Yes,Yes,Yes,No,No,Yes,None,None,25-Bishop-Tutu-Boulevard-BuildingExterior.jpg,-79.39985755,43.63572513
81,Bathurst Quay Townhouses,17-55 Bishop Tutu Boulevard,10,TCHC,Toronto Community Housing ,https://www.torontohousing.ca/rent,Townhouse/ Walk-up,25,Bishop Tutu Boulevard,Toronto,M5V 2Z9,No,No,No,Yes,Yes,Yes,Yes,No,No,Yes,No,No,No,No,No,Yes,Yes,Yes,No,No,Yes,None,None,17-55-Bishop-Tutu-Boulevard-BuildingExterior.jpg,-79.39985755,43.63572513
82,Bathurst/Adelaide Project,575 Adelaide Street West,10,TCHC,Toronto Community Housing ,https://www.torontohousing.ca/rent,High Rise,575,Adelaide Street West,Toronto,M6J 3R8,No,No,No,Yes,Yes,No,No,No,No,Yes,No,No,Yes,No,No,Yes,Yes,Yes,No,No,Yes,None,None,575-Adelaide-Street-West-BuildingExterior.jpg,-79.40368311,43.64458456
83,Bathurst-Eglinton Project,790-840 Eglinton Avenue West,8,TCHC,Toronto Community Housing ,https://www.torontohousing.ca/rent,Low Rise,790,Eglinton Avenue West,Toronto,M5N 1G2,No,No,Yes,Yes,Yes,No,No,No,No,Yes,No,No,Yes,No,No,Yes,No,No,No,No,Yes,None,None,790-840-Eglinton-Avenue-West-BuildingExterior.jpg,-79.42364786,43.70168991
84,Beaches Lions Centennial Apts,50 Norway Avenue,19,TCHC,Toronto Seniors Housing Corporation ,https://www.torontohousing.ca/rent,Townhouse/ Walk-up,50,Norway Avenue,Toronto,M4L 1R1,Yes,No,Yes,Yes,No,No,No,No,No,No,No,No,No,No,No,Yes,No,No,No,No,Yes,Senior 59+,None,50-Norway-Avenue-BuildingExterior.jpg,-79.30475555,43.67425261
85,Beecroft Manor,35 Park Home Avenue,18,TCHC,Toronto Seniors Housing Corporation ,https://www.torontohousing.ca/rent,High Rise,35,Park Home Avenue,Toronto,M2N 5W4,Yes,No,Yes,Yes,No,No,No,No,No,Yes,No,No,Yes,No,No,Yes,No,No,No,No,Yes,Senior 59+,None,35-Park Home-Avenue-BuildingExterior.jpg,-79.4155259,43.76812434
86,Bessie Luffman,320 Seaton Street,13,TCHC,Toronto Community Housing ,https://www.torontohousing.ca/rent,High Rise,320,Seaton Street,Toronto,M5A 2T7,No,No,No,No,No,Yes,No,No,No,Yes,No,No,No,No,No,Yes,No,No,No,No,Yes,None,None,320-Seaton-Street-BuildingExterior.jpg,-79.37146315,43.6625339
87,Beverley Manor,168 John Street,10,TCHC,Toronto Seniors Housing Corporation ,https://www.torontohousing.ca/rent,High Rise,168,John Street,Toronto,M5T 2X9,Yes,No,Yes,Yes,No,No,No,No,No,Yes,No,No,Yes,No,No,Yes,Yes,Yes,No,No,Yes,Senior 59+,None,168-John-Street-BuildingExterior.jpg,-79.39150337,43.65024026
88,Birchmount/Eglinton,1021 Birchmount Road,21,TCHC,Toronto Community Housing,https://www.torontohousing.ca/rent,High Rise,1021,Birchmount Road,Toronto,M1K 1S2,No,No,No,Yes,Yes,Yes,No,No,No,Yes,No,No,No,No,No,Yes,Yes,Yes,No,No,Yes,None,None,1021-Birchmount-Road-BuildingExterior.jpg,-79.27790395,43.73164966
89,Blair Court,266 Donlands Avenue,14,TCHC,Toronto Seniors Housing Corporation ,https://www.torontohousing.ca/rent,High Rise,266,Donlands Avenue,Toronto,M4J 5B1,Yes,No,No,Yes,Yes,No,No,No,No,Yes,No,No,Yes,No,No,Yes,Yes,Yes,No,No,Yes,Senior 59+,None,266-Donlands-Avenue-BuildingExterior.jpg,-79.3419083,43.68965629
90,Blake Street Apartments,80 Blake Street||10 Boultbee Avenue,14,TCHC,Toronto Community Housing ,https://www.torontohousing.ca/rent,High Rise,80,Blake Street,Toronto,M4J 3E1,No,No,No,Yes,Yes,Yes,Yes,Yes,No,Yes,No,No,No,No,No,Yes,Yes,No,No,No,Yes,None,None,80-Blake-Street-BuildingExterior.jpg,-79.33937522,43.67450985
91,Blake Street Rowhouses,30-70 Blake Street||20 Boultbee Avenue,14,TCHC,Toronto Community Housing ,https://www.torontohousing.ca/rent,Townhouse/ Walk-up,80,Blake Street,Toronto,M4J 3E1,No,No,No,Yes,Yes,Yes,Yes,Yes,No,Yes,No,No,No,No,No,Yes,Yes,No,No,No,Yes,None,None,30-Blake-Street-BuildingExterior.jpg,-79.33937522,43.67450985
92,Blake Towers,154 Vaughan Road,12,TCHC,Toronto Community Housing ,https://www.torontohousing.ca/rent,High Rise,154,Vaughan Road,Toronto,M6C 4A2,No,No,Yes,Yes,Yes,No,No,No,No,Yes,No,No,Yes,No,No,Yes,Yes,Yes,No,No,Yes,None,None,154-Vaughan-Road-BuildingExterior.jpg,-79.42224871,43.68552908
93,Bleecker Street,275-375 Bleecker Street,13,TCHC,Toronto Community Housing,https://www.torontohousing.ca/rent,High Rise,275,Bleecker Street,Toronto,M4X 1M1,No,No,Yes,Yes,Yes,Yes,No,No,No,Yes,No,No,No,No,No,Yes,Yes,Yes,No,No,Yes,None,None,375-Bleecker-Street-BuildingExterior.jpg,-79.37370511,43.66883594
94,St.Clare's Multifaith Housing Society,5 Hahn Place,10,PNP,St.Clare's Multifaith Housing Society,None,Townhouse/ Walk-up,5,Hahn Place,Toronto,M5A 4S1,No,No,No,No,Yes,Yes,Yes,No,No,Yes,No,No,No,Yes,Yes,No,No,No,No,No,No,None,None,5-Hahn-Place-BuildingExterior.jpg,-79.36280833,43.64890418
95,Brimley Acres,2950 Lawrence Ave East,21,TCHC,Toronto Seniors Housing Corporation ,https://www.torontohousing.ca/rent,High Rise,2950,Lawrence Ave East,Toronto,M1P 2T9,Yes,No,Yes,Yes,No,No,No,No,No,No,No,No,Yes,No,No,Yes,Yes,No,No,No,Yes,Senior 59+,None,2950-Lawrence-Avenue-East-BuildingExterior.jpg,-79.2505927,43.75523277
96,Broadview Manor,80 Danforth Avenue,14,TCHC,Toronto Seniors Housing Corporation ,https://www.torontohousing.ca/rent,High Rise,80,Danforth Avenue,Toronto,M4K 3Y5,Yes,No,Yes,Yes,No,No,No,No,No,Yes,No,No,No,No,No,Yes,Yes,Yes,No,No,Yes,Senior 59+,None,80-Danforth-Avenue-BuildingExterior.jpg,-79.35975595,43.67633044
97,Byng Towers,3330 Danforth Avenue,20,TCHC,Toronto Seniors Housing Corporation ,https://www.torontohousing.ca/rent,High Rise,3330,Danforth Avenue,Toronto,M1L 4P9,Yes,No,Yes,Yes,No,No,No,No,No,Yes,No,No,Yes,No,No,Yes,Yes,Yes,No,No,Yes,Senior 59+,None,3330-Danforth-Avenue-BuildingExterior.jpg,-79.27861181,43.69373042
98,Campbell/Antler,2 Antler Street||269 Campbell  Avenue||269-279A Campbell Avenue,9,TCHC,Toronto Community Housing ,https://www.torontohousing.ca/rent,Low Rise,2,Antler Street,Toronto,M6P 4B9,No,No,Yes,Yes,Yes,Yes,No,No,No,No,No,No,No,Yes,No,Yes,No,No,No,No,Yes,None,None,2-Antler-Street-BuildingExterior.jpg,-79.44845915,43.66456273
99,Canlish Road,10-15 Canlish Road,21,TCHC,Toronto Community Housing ,https://www.torontohousing.ca/rent,Townhouse/ Walk-up,10,Canlish Road,Toronto,M1P 1S4,No,No,No,No,No,Yes,No,No,No,No,No,No,No,No,No,Yes,No,No,No,No,Yes,None,None,10-15-Canlish-Road-BuildingExterior.jpg,-79.28197998,43.74875167
100,Capri Road,7 Capri Road,2,TCHC,Toronto Community Housing,https://www.torontohousing.ca/rent,High Rise,7,Capri Road,Toronto,M9B 6B9,No,No,No,Yes,Yes,Yes,No,No,No,Yes,No,No,No,No,No,Yes,Yes,No,No,No,Yes,None,None,7-Capri-Road-BuildingExterior.jpg,-79.56404412,43.65270428
101,Cavell/Harcourt Project Apartments,39 Harcourt Avenue,14,TCHC,Toronto Community Housing ,https://www.torontohousing.ca/rent,Low Rise,60,Cavell Avenue,Toronto,M4J 1H6,No,No,No,Yes,Yes,Yes,No,No,No,Yes,No,No,No,No,Yes,Yes,Yes,Yes,No,No,Yes,None,None,39-Harcourt-Avenue-BuildingExterior.jpg,-79.34335297,43.67693248
102,Cavell/Harcourt Project Townhouses,60-114A Cavell Avenue,14,TCHC,Toronto Community Housing ,https://www.torontohousing.ca/rent,Townhouse/ Walk-up,60,Cavell Avenue,Toronto,M4J 1H6,No,No,No,Yes,Yes,Yes,No,No,No,Yes,No,No,No,No,Yes,Yes,Yes,Yes,No,No,Yes,None,None,60-114A-Cavell-Avenue-BuildingExterior.jpg,-79.34335297,43.67693248
103,Cedarbrae Manor,65 Greencrest Circuit,24,TCHC,Toronto Seniors Housing Corporation ,https://www.torontohousing.ca/rent,High Rise,65,Greencrest Circuit,Toronto,M1G 3T9,Yes,No,Yes,Yes,No,No,No,No,No,Yes,No,No,Yes,Yes,No,Yes,Yes,Yes,No,No,Yes,Senior 59+,None,65-Greencrest-Circuit-BuildingExterior.jpg,-79.22179744,43.75999533
104,Centennial Apartments,5 Wakunda Place||7-11 Wakunda Place,19,TCHC,Toronto Community Housing ,https://www.torontohousing.ca/rent,High Rise|Low Rise,5,Wakunda Place,Toronto,M4A 1A2,No,No,Yes,Yes,No,No,No,No,No,No,Yes,Yes,Yes,No,No,Yes,Yes,No,No,No,Yes,None,None,5-Wakunda-Place-BuildingExterior.jpg,-79.3046724,43.71556526
105,Champlain Apartments,495 Wilson Avenue,6,TCHC,Toronto Community Housing ,https://www.torontohousing.ca/rent,High Rise,495,Wilson Avenue,Toronto,M3H 6B2,No,No,No,Yes,Yes,Yes,No,No,No,Yes,No,Yes,No,No,No,Yes,Yes,Yes,No,No,Yes,None,None,495-Wilson-Avenue-BuildingExterior.jpg,-79.4453546,43.73476603
106,Chatham/Oakvale Project,195-203D Chatham Avenue,14,TCHC,Toronto Community Housing ,https://www.torontohousing.ca/rent,Townhouse/ Walk-up,195,Chatham Avenue,Toronto,M4J 1K8,No,No,No,Yes,Yes,Yes,No,No,No,No,No,No,No,No,No,Yes,No,No,No,No,Yes,None,None,195-203D-Chatham-Avenue-BuildingExterior.jpg,-79.33363141,43.67995593
107,Cliffwood Manor,4000 Don Mills Road,17,TCHC,Toronto Seniors Housing Corporation ,https://www.torontohousing.ca/rent,High Rise,4000,Don Mills Road,Toronto,M2H 3N2,Yes,No,Yes,Yes,No,No,No,No,No,Yes,No,No,Yes,No,No,Yes,Yes,Yes,No,No,Yes,Senior 59+,None,4000-Don-Mills-Road-BuildingExterior.jpg,-79.36147583,43.81037796
108,College View Apartments,423 Yonge Street,13,TCHC,Toronto Seniors Housing Corporation ,https://www.torontohousing.ca/rent,High Rise,423,Yonge Street,Toronto,M5B 1T2,Yes,No,Yes,Yes,No,No,No,No,No,No,Yes,No,No,No,No,Yes,No,No,No,No,Yes,Senior 59+,None,423-Yonge-Street-BuildingExterior.jpg,-79.38230631,43.66027214
109,Riverdale Co-Operative Houses Inc.,36 Pape Ave||13 Prust Ave,14,CO-OP,Riverdale Co-Operative Houses Inc,None,Townhouse/ Walk-up,1363,Queen Street East,Toronto,M4L 1C7,No,No,Yes,Yes,Yes,Yes,No,No,No,None,None,None,None,None,None,None,None,No,None,None,None,None,None,None,-79.32523921,43.66422892
110,Cooper Mills Townhouses,4020 Dundas Street West,4,TCHC,Toronto Community Housing ,https://www.torontohousing.ca/rent,Townhouse/ Walk-up,4020,Dundas Street West,Toronto,M6S 4W6,No,No,No,Yes,Yes,Yes,No,No,No,Yes,No,No,No,No,No,Yes,No,No,No,No,Yes,None,None,4020-Dundas-Street-West-BuildingExterior.jpg,-79.50279291,43.66491681
111,Coxwell Stables,426-444B Coxwell Avenue,14,TCHC,Toronto Community Housing ,https://www.torontohousing.ca/rent,Townhouse/ Walk-up,426,Coxwell Avenue,Toronto,M4L 3B7,No,No,Yes,Yes,Yes,No,No,No,No,No,No,No,No,No,No,No,No,No,No,No,Yes,None,None,426-444B-Coxwell-Avenue-BuildingExterior.jpg,-79.32119931,43.67693413
112,Woodtree Co-Operative Inc. Apartments,1 Nashville Avenue,5,CO-OP,Woodtree Co-Operative Inc,None,Low Rise,1,Nashville Avenue,Toronto,M6M 3W3,No,No,No,Yes,Yes,Yes,No,No,No,No,No,No,No,Yes,Yes,Yes,No,No,No,Yes,No,None,None,None,-79.47266797,43.68376622
113,Woodtree Co-Operative Inc. Walkup,1414 Davenport Road,9,CO-OP,Woodtree Co-Operative Inc,None,Detached,1414,Davenport Road,Toronto,M6H 2H7,No,No,Yes,Yes,Yes,No,No,No,No,No,No,No,No,Yes,Yes,Yes,No,No,No,Yes,No,None,None,None,-79.44177731,43.67319608
114,Woodtree Co-Operative Inc. Walkup,10 Spring Grove Avenue,9,CO-OP,Woodtree Co-Operative Inc,None,Semi-Detached,10,Spring Grove Avenue,Toronto,M6N 3H3,No,No,No,No,Yes,Yes,No,No,No,No,No,No,No,Yes,Yes,Yes,No,No,No,Yes,No,None,None,None,-79.45879084,43.6734773
115,Scarborough Heights Co-Operative Homes Inc,90 Burrows Hall Boulevard,23,CO-OP,Scarborough Heights Co-Operative Homes Inc,None,High Rise,90,Burrows Hall Boulevard,Toronto,M1B 5M2,No,No,No,Yes,Yes,Yes,No,No,No,Yes,No,No,Yes,No,No,Yes,Yes,Yes,Yes,No,Yes,None,None,90-Burrows-Hall-BuildingExterior.jpg,-79.23272563,43.79232702
116,St Matthew's Bracondale House Family,200-220 Ellsworth Avenue,12,PNP,St Matthew's Bracondale House,None,Townhouse/ Walk-up,707,St Clair Avenue West,Toronto,M6C 4A1,No,No,No,No,Yes,Yes,No,No,No,No,No,No,No,No,No,Yes,No,No,No,No,No,None,None,200-220-Ellesworth-Avenue-BuildingExterior.jpg,-79.42661481,43.68122303
117,Chinese Evergreen Family,2323-2351 McNicoll Avenue,23,PNP,Yee Hong Chinese Evergreen Non-Profit Homes Corp. ,None,Townhouse/ Walk-up,2319,McNicoll Avenue,Toronto,M1V 5L2,No,No,No,No,No,Yes,No,No,No,No,No,No,No,No,No,No,No,No,No,No,Yes,None,None,2319-2351-McNicoll-Avenue-BuildingExterior.jpg,-79.28979738,43.81430665
118,Almise Co-Operative Homes Inc.,16 Concorde Place,16,CO-OP,Almise Co-Operative Homes Inc,None,High Rise,16,Concorde Place,Toronto,M3C 3S6,Yes,No,No,Yes,Yes,No,No,No,No,No,No,No,Yes,No,No,Yes,Yes,Yes,Yes,No,No,Senior 59+,None,16-Concord-Place-BuildingExterior.jpg,-79.32890117,43.73097211
119,Harmony Co-Operative Homes Inc,33 Princess Street,13,CO-OP,Harmony Co-Operative Homes Inc,None,High Rise,33,Princess Street,Toronto,M5A 4P4,No,No,No,Yes,Yes,Yes,Yes,No,No,No,No,No,No,No,No,Yes,Yes,Yes,No,No,No,None,None,33-Princess-Street-BuildingExterior.jpg,-79.36564675,43.65030673
120,Secord Avenue Co-Operative Homes,80 Secord Avenue,19,CO-OP,Secord Avenue Co-Operative Homes,None,Low Rise,80,Secord Avenue,Toronto,M4C 5S1,No,No,No,Yes,Yes,Yes,No,No,No,No,No,No,No,No,No,Yes,Yes,Yes,Yes,No,Yes,None,None,80-Secord-Avenue-BuildingExterior.jpg,-79.29784558,43.69369516
121,Ascot Co-Op Homes,930 Queens Plate Drive,1,CO-OP,Ascot Co-Op Homes,None,High Rise,930,Queens Plate Drive,Toronto,M9W 6Z5,No,No,No,Yes,Yes,Yes,No,No,No,Yes,No,No,Yes,No,No,Yes,Yes,Yes,No,No,Yes,None,None,930-Queens-Plate-Drive-BuildingExterior.jpg,-79.60471255,43.71984375
122,Barsa Kelly Cari-Can Co-Operative Homes,1 Coin Street,3,CO-OP,Barsa Kelly Cari-Can Co-Operative Homes Inc.,None,High Rise,1,Coin Street,Toronto,M8V 3Y9,No,No,No,Yes,Yes,Yes,No,No,No,No,No,No,Yes,No,No,Yes,Yes,Yes,Yes,No,Yes,None,None,1-Coin-Street-BuildingExterior.jpg,-79.50839405,43.60135239
123,Birmingham Homes Co-Op Inc,10-20 Elsinore Path||40 Etta Wylie Road,3,CO-OP,Birmingham Homes Co-Op Inc,None,Townhouse/ Walk-up,10,Elsinore Path,Toronto,M8V 3Z3,No,No,No,No,Yes,Yes,Yes,No,No,No,No,No,No,No,No,Yes,No,No,No,No,Yes,None,None,None,-79.51068483,43.60171056
124,Lakeshore Gardens Co-Operative Homes Inc Apartments,10 Garnett Janes Road,3,CO-OP,Lakeshore Gardens Co-Operative Homes Inc.,None,High Rise,10,Garnett Janes Road,Toronto,M8V 3Z2,No,No,No,Yes,Yes,Yes,Yes,No,No,Yes,No,No,Yes,No,No,Yes,Yes,Yes,No,No,Yes,None,None,10-Garnett-Janes-Road-BuildingExterior.jpg,-79.50886112,43.60176315
125,Lakeshore Gardens Co-Operative Homes Inc Stacked Rowhouses,250 Ninth Street,3,CO-OP,Lakeshore Gardens Co-Operative Homes Inc.,None,Townhouse/ Walk-up,10,Garnett Janes Road,Toronto,M8V 3Z2,No,No,No,Yes,Yes,Yes,Yes,No,No,Yes,No,No,Yes,No,No,Yes,Yes,Yes,No,No,Yes,None,None,250-Ninth-Street-BuildingExterior.jpg,-79.50886112,43.60176315
126,Clintwood Non-Profit Housing Co-Op,1974-1982 Victoria Park Avenue,16,CO-OP,Clintwood Non-Profit Housing Co-Operative,None,Townhouse/ Walk-up,1978,Victoria Park Avenue,Toronto,M1R 1T9,No,No,No,No,Yes,Yes,No,No,No,No,No,No,No,No,No,Yes,No,No,No,No,No,None,None,1974-Victoria-Park-Avenuet-BuildingExterior.jpg,-79.31279704,43.749757
127,Lambert Court Apartments,2 Lambertlodge Avenue,12,TCHC,Toronto Community Housing ,https://www.torontohousing.ca/rent,Low Rise,2,Lambertlodge Avenue,Toronto,M6G 3Y9,No,No,No,Yes,Yes,Yes,No,No,No,No,No,No,No,Yes,No,Yes,No,Yes,No,No,Yes,None,None,2-Lambertlodge-Avenue-BuildingExterior.jpg,-79.42265783,43.67391754
128,Harry Sherman Crowe Housing Co-Op Inc. Apartments,51 The Chimneystack Road,7,CO-OP,Harry Sherman Crowe Housing Co-Op Inc.,None,High Rise,51,The Chimneystack Road,Toronto,M3J 3L9,No,No,No,Yes,Yes,Yes,Yes,No,No,No,No,No,Yes,No,No,Yes,Yes,Yes,Yes,No,Yes,None,None,51-The-Chimneystack-Road-BuildingExterior.jpg,-79.4990789,43.77631427
129,Lambert Court Stacked Rowhouses,384-390 Christie Street||10-50 Lambertlodge Avenue||255-269 Melita Avenue,12,TCHC,Toronto Community Housing ,https://www.torontohousing.ca/rent,Townhouse/ Walk-up,2,Lambertlodge Avenue,Toronto,M6G 3Y9,No,No,No,Yes,Yes,Yes,No,No,No,No,No,No,No,Yes,No,Yes,No,Yes,No,No,Yes,None,None,384-390-Christie-Street-BuildingExterior.jpg,-79.42265783,43.67391754
130,Larch Street,76 Grange Avenue||6-32 Larch Street,10,TCHC,Toronto Community Housing ,https://www.torontohousing.ca/rent,Townhouse/ Walk-up,15,Larch Street,Toronto,M3M 4M4,No,No,Yes,Yes,Yes,Yes,No,No,No,Yes,No,No,No,Yes,No,Yes,No,Yes,No,No,Yes,None,None,76-Grange-Avenue-BuildingExterior.jpg,-79.39647886,43.65265572
131,Harry Sherman Crowe Housing Co-Op Inc. Townhouses,51 The Chimneystack Road,7,CO-OP,Harry Sherman Crowe Housing Co-Op Inc.,None,Townhouse/ Walk-up,51,The Chimneystack Road,Toronto,M3J 3L9,No,No,No,Yes,Yes,Yes,Yes,No,No,No,No,No,Yes,No,No,Yes,Yes,Yes,Yes,No,Yes,None,None,51-The-Chimneystack-Road-TownhousesExterior.jpg,-79.4990789,43.77631427
132,Salvador Del Mundo Co-Op - Upwood Park,298-300 Queens Drive,5,CO-OP,Salvador Del Mundo/ Upwood Co-Op,None,High Rise,298,Queens Drive,Toronto,M6L 3E3,No,No,No,Yes,Yes,Yes,No,No,No,Yes,No,No,Yes,No,No,Yes,Yes,Yes,Yes,No,Yes,None,None,298-Queens-Drive-BuildingExterior.jpg,-79.5026298,43.70809179
133,Wilmar Eight Housing Co-Op,25 Brucewood Crescent,8,CO-OP,Willmar Eight Housing Co-Op,None,High Rise,25,Brucewood Crescent,Toronto,M6A 3C9,No,No,No,Yes,Yes,Yes,No,No,No,Yes,No,No,Yes,No,No,Yes,Yes,Yes,Yes,Yes,No,None,None,25-Brucewood-Crescent-BuildingExterior.jpg,-79.43307156,43.71981753
134,Lawrence Heights,58-78 Cather Crescent||1-55 Varna Drive||50-58 Blossomfield Drive||18-56 Cather Crescent||15-51 Flemington Road,8,TCHC,Toronto Community Housing ,https://www.torontohousing.ca/rent,Detached|Semi-Detached,37,Varna Drive,Toronto,M6A 2P1,No,No,No,No,No,No,Yes,Yes,No,No,No,No,No,No,No,No,No,No,No,No,Yes,None,None,58-78-Cather-Crescent-BuildingExterior.jpg,-79.44054836,43.72102325
135,Atahualpa Co-Opperative Homes 1987 Inc,3 Brimley Road,20,CO-OP,Atahualpa Co-Operative Homes 1987 Inc,None,High Rise,3,Brimley Road,Toronto,M1M 3W2,No,No,No,Yes,Yes,Yes,No,No,No,No,No,No,Yes,No,No,No,Yes,Yes,No,No,No,None,None,3-Brimley-Road-BuildingExterior.jpg,-79.2405146,43.72007247
136,Lawrence Heights Apartments,20 Zachary Court||20 New Heigths Court,8,TCHC,Toronto Community Housing ,https://www.torontohousing.ca/rent,High Rise,37,Varna Drive,Toronto,M6A 2P1,No,No,No,Yes,Yes,Yes,Yes,Yes,No,No,No,No,No,No,No,No,No,No,No,No,Yes,None,None,None,-79.44054836,43.72102325
137,Bellamy Housing Co-Operative Inc,130 Bellamy Road North,21,CO-OP,Bellamy Housing Co-Operative Inc,None,High Rise,130,Bellamy Road N,Toronto,M1J 2L2,No,No,No,Yes,Yes,Yes,No,No,No,Yes,No,No,Yes,No,No,Yes,Yes,No,No,No,Yes,None,None,130-Bellamy-Road-North-BuildingExterior.jpg,-79.23071702,43.74241456
138,Lawrence Heights Rowhouses,1-85 Amaranth Court||1-133 Bagot Court||1-87 Bredonhill Court||1-65 Cather Crescent||1-97 Dorney Court||2-96 Edengarth Court||53-125 Flemington Road||2-84 Pengarth Court||57-119 Varna Drive,8,TCHC,Toronto Community Housing ,https://www.torontohousing.ca/rent,Townhouse/ Walk-up,37,Varna Drive,Toronto,M6A 2P1,No,No,No,No,No,Yes,Yes,No,No,No,No,No,No,No,No,No,No,No,No,No,Yes,None,None,1-85-Amaranth-Court-BuildingExterior.jpg,-79.44054836,43.72102325
139,Orchard Grove Housing Co-Operative Inc Apartments,3392 Kingston Road,20,CO-OP,Orchard Grove Housing Co-Operative Inc.,None,High Rise,3392,Kingston Road,Toronto,M1M 3W5,No,No,No,Yes,Yes,Yes,No,No,No,Yes,No,No,Yes,No,No,Yes,Yes,Yes,No,No,No,None,None,3392-Kingston-Road-BuildingExterior.jpg,-79.22029268,43.73620526
140,Lawrence Heights Walkup,87 Amaranth Court||51 Blossomfield Drive||1-11 Flemington Road||3-5 Leila Lane||1-3 Old Meadow Lane||1-6 Replin Road||20-22 Varna Drive,8,TCHC,Toronto Community Housing ,https://www.torontohousing.ca/rent,Townhouse/ Walk-up,37,Varna Drive,Toronto,M6A 2P1,No,No,No,Yes,Yes,Yes,No,No,No,No,No,No,No,No,No,No,No,No,No,No,Yes,None,None,87-Amaranth-Court-BuildingExterior.jpg,-79.44054836,43.72102325
141,Orchard Grove Housing Co-Operative Inc Stacked Rowhouses,3398 Kingston Road,20,CO-OP,Orchard Grove Housing Co-Operative Inc.,None,Townhouse/ Walk-up,3392,Kingston Road,Toronto,M1M 3W5,No,No,No,Yes,Yes,Yes,No,No,No,Yes,No,No,Yes,No,No,Yes,Yes,Yes,No,No,No,None,None,3398-Kingston-Road-BuildingExterior.jpg,-79.22029268,43.73620526
142,Lawrence/Orton Apartments,3947 Lawrence Avenue East,24,TCHC,Toronto Community Housing,https://www.torontohousing.ca/rent,High Rise,3947,Lawrence Avenue East,Toronto,M1G 1R9,No,No,No,Yes,Yes,Yes,No,No,No,Yes,No,No,No,No,No,Yes,Yes,Yes,No,No,Yes,None,None,3947-Lawrence-Avenue-East-BuildingExterior.jpg,-79.20381674,43.76381277
143,Ujamaa Housing Co-Op,138 Bellamy Road North,21,CO-OP,Ujamaa Housing Co-Op,None,Low Rise,138,Bellamy Road North,Toronto,M1J 3N9,No,No,No,Yes,Yes,Yes,Yes,No,No,No,No,No,Yes,No,No,Yes,Yes,Yes,Yes,No,Yes,None,None,138-Bellamy-Road-North-BuildingExterior.jpg,-79.23025087,43.74261751
144,Lawrence/Orton Walkup,3939-3945 Lawrence Avenue East,24,TCHC,Toronto Community Housing,https://www.torontohousing.ca/rent,Townhouse/ Walk-up,3947,Lawrence Avenue East,Toronto,M1G 1R9,No,No,No,Yes,Yes,Yes,No,No,No,Yes,No,No,No,No,No,Yes,Yes,Yes,No,No,Yes,None,None,3939-Lawrence-Avenue-East-BuildingExterior.jpg,-79.20381674,43.76381277
145,West Rouge Housing Co-Op,8 Clappison Boulevard,25,CO-OP,West Rouge Housing Co-Op,None,Townhouse/ Walk-up,8,Clappison Boulevard,Toronto,M1C 4Z5,No,No,No,Yes,Yes,Yes,Yes,No,No,No,No,No,No,No,No,No,Yes,Yes,No,No,No,None,None,8-Clappison-Boulevard-BuildingExterior.jpg,-79.13834524,43.78064237
146,Woburn Village Co-Operative Homes Inc,550 Brimorton Drive||255 Dolly Varden Blvd||155 Dolly Varden Boulevard||2055 Ellesmere Avenue,24,CO-OP,Woburn Village Co-Op,None,Townhouse/ Walk-up,255,Dolly Varden Blvd,Toronto,M1H 2K8,No,No,No,Yes,Yes,Yes,Yes,No,No,No,No,No,No,No,No,Yes,No,Yes,Yes,No,No,None,None,550-Brimorton-Drive-BuildingExterior.jpg,-79.23458697,43.77544362
147,Lawrence/Susan,3847 Lawrence Avenue East,24,TCHC,Toronto Community Housing,https://www.torontohousing.ca/rent,High Rise,3847,Lawrence Avenue East,Toronto,M1G 1R5,No,No,No,Yes,Yes,Yes,No,No,No,Yes,No,No,No,No,No,Yes,Yes,No,No,No,Yes,None,None,3847-Lawrence-Avenue-East-BuildingExterior.jpg,-79.2104931,43.76249103
148,Peggy And Andrew Brewin Housing Co-Op Apartments,77 Charles Street East||77 Charles Street East,13,CO-OP,Peggy And Andrew Brewin Housing Co-Op,None,High Rise|Low Rise,77,Charles Street East,Toronto,M4Y 2Z7,No,No,Yes,Yes,Yes,Yes,No,No,No,No,No,No,Yes,No,No,Yes,Yes,Yes,Yes,No,Yes,None,None,77-Charles-Street-East-HighRise-BuildingExterior.jpg,-79.38164406,43.66923369
149,Lawrence/Valia,30 Valia Road,25,TCHC,Toronto Community Housing,https://www.torontohousing.ca/rent,Townhouse/ Walk-up,30,Valia Road,Toronto,M1E 3W2,No,No,No,No,No,Yes,No,No,No,No,No,No,No,No,No,No,No,No,No,No,Yes,None,None,30-Valia-Road-BuildingExterior.jpg,-79.17279662,43.77092497
150,Jarvis George Housing Co-Operative Inc,279 Jarvis Street,13,CO-OP,Jarvis George Housing Co-Operative Inc,None,High Rise,279,Jarvis Street,Toronto,M5B 2P2,No,No,No,Yes,Yes,Yes,No,No,No,Yes,No,No,Yes,No,No,Yes,Yes,Yes,Yes,No,Yes,None,None,279-Jarvis-Street-BuildingExterior.jpg,-79.37479116,43.65843654
151,Laxton Ave Project,3 Laxton Avenue,4,TCHC,Toronto Community Housing ,https://www.torontohousing.ca/rent,High Rise,3,Laxton Avenue,Toronto,M6K 1K8,No,No,No,Yes,Yes,No,No,No,No,Yes,No,No,Yes,No,No,Yes,No,No,No,No,Yes,None,None,3-Laxton-Avenue-BuildingExterior.jpg,-79.43773772,43.63914651
152,Jenny Green Housing Co-Operative Homes Inc Apartments,300 George Street,13,CO-OP,Jenny Green Co-Operative Homes Inc.,None,Low Rise,300,George Street,Toronto,M5A 2N3,No,No,No,Yes,Yes,Yes,No,No,No,No,No,No,Yes,No,No,Yes,Yes,Yes,No,No,No,None,None,None,-79.37408211,43.65808962
153,Casa Del Zotto Seniors Apartments,3010 Dufferin Street,8,PNP,Italian Canadian Benevolent Seniors Apartment Corporation,None,High Rise,3010,Dufferin Street,Toronto,M6B 4J5,Yes,No,No,Yes,Yes,No,No,No,No,No,No,No,Yes,No,No,Yes,Yes,Yes,No,No,No,Senior 59+,None,3010-Dufferin-Street-BuildingExterior.jpg,-79.45499552,43.71187089
154,Leonardo Court,72 Clinton Street,11,TCHC,Toronto Seniors Housing Corporation ,https://www.torontohousing.ca/rent,High Rise,72,Clinton Street,Toronto,M6G 3Z9,Yes,No,No,Yes,No,No,No,No,No,Yes,No,No,No,No,No,Yes,Yes,Yes,No,No,Yes,Senior 59+,None,72-Clinton-Street-BuildingExterior.jpg,-79.4149595,43.65569799
155,Lerette Manor,250 Twelfth Street,3,TCHC,Toronto Seniors Housing Corporation ,https://www.torontohousing.ca/rent,High Rise,250,Twelfth Street,Toronto,M8V 3Y8,Yes,No,No,Yes,Yes,No,No,No,No,Yes,No,No,Yes,No,No,Yes,Yes,Yes,No,No,Yes,Senior 59+,None,250-Twelfth-Street-BuildingExterior.jpg,-79.51152204,43.60066964
156,Jenny Green Housing Co-Operative Homes Inc Townhouses,290-312 George Street,13,CO-OP,Jenny Green Co-Operative Homes Inc.,None,Townhouse/ Walk-up,300,George Street,Toronto,M5A 2N3,No,No,No,Yes,Yes,Yes,No,No,No,No,No,No,Yes,No,No,Yes,Yes,Yes,No,No,No,None,None,None,-79.37408211,43.65808962
157,Leslie/Finch,1-15 Field Sparroway||2-10 Tree Sparroway,17,TCHC,Toronto Community Housing ,https://www.torontohousing.ca/rent,Townhouse/ Walk-up,2,Tree Sparroway,Toronto,M2H 3B6,No,No,No,No,No,Yes,No,Yes,No,Yes,None,None,None,None,None,Yes,None,None,None,None,Yes,None,None,None,-79.369133,43.791302
158,Margaret Laurence Housing Co-Operative,81 Dalhousie Street,13,CO-OP,Margaret Laurence Housing Co-Operative,None,High Rise,81,Dalhousie Street,Toronto,M5B 2N1,No,No,Yes,Yes,Yes,Yes,No,No,No,Yes,No,No,Yes,No,No,Yes,Yes,Yes,Yes,No,Yes,None,None,81-Dalhousie-Street-BuildingExterior.jpg,-79.37611684,43.65604061
159,Leslie/Nymark Apartments,30 Okra Tomar Crescent,18,TCHC,Toronto Community Housing ,https://www.torontohousing.ca/rent,Low Rise,30,Okra Tomar Crescent,Toronto,M2J 0G8,No,No,No,No,No,Yes,Yes,No,No,None,None,None,None,None,None,None,None,None,None,None,None,None,None,None,-79.36539176,43.77685352
160,Metta Housing Co-Operative Inc,99 Dalhousie Street,13,CO-OP,Metta Housing Co-Operative Inc,None,High Rise,99,Dalhousie Street,Toronto,M5B 2N2,No,No,Yes,Yes,Yes,Yes,No,No,No,Yes,No,No,Yes,No,No,No,Yes,Yes,Yes,No,Yes,None,None,99-Dalhousie-Street-BuildingExterior.jpg,-79.3762721,43.6564038
161,Muriel Collins Housing Co-Operative Inc.,76 Lombard Street||79 Richmond Street East,13,CO-OP,Muriel Collins Housing Co-Operative Inc.,None,High Rise,79,Richmond Street East,Toronto,M5C 1N9,No,No,No,Yes,Yes,Yes,No,No,No,Yes,No,No,Yes,No,No,Yes,Yes,Yes,Yes,No,Yes,None,None,76-Lombard-Street-BuildingExterior.jpg,-79.37450528,43.65247634
162,Leslie/Nymark Townhouses,1-28 Okra Tomar Crescent,17,TCHC,Toronto Community Housing ,https://www.torontohousing.ca/rent,Townhouse/ Walk-up,30,Okra Tomar Crescent,Toronto,M2J 0G8,No,No,No,No,No,Yes,Yes,No,No,None,None,None,None,None,None,None,None,None,None,None,None,None,None,None,-79.36614682,43.77718421
163,Terrace Housing Co-Operative Inc.,88 Mutual Street,13,CO-OP,Terrace Housing Co-Operative Inc,None,High Rise,88,Mutual Street,Toronto,M5B 2N3,No,No,Yes,Yes,Yes,Yes,No,No,No,Yes,No,No,Yes,No,No,Yes,Yes,Yes,Yes,No,Yes,None,None,88-Mutual-Street-BuildingExterior.jpg,-79.37575202,43.65648895
164,Lightwood/Sanagan,33-83 Lightwood Drive||1-3 Sanagan Road,1,TCHC,Toronto Community Housing,https://www.torontohousing.ca/rent,Fourplex,33,Lightwood Drive,Toronto,M9V 2Z1,No,No,No,No,No,Yes,No,No,No,No,No,No,No,No,No,Yes,No,No,No,No,Yes,None,None,33-83-Lightwood-Drive-BuildingExterior.jpg,-79.57284529,43.7379745
165,Chord Housing Co-Operative Inc. Apartments,43 Goldwin Avenue,5,CO-OP,Chord Housing Co-Operative Inc.,None,High Rise,43,Goldwin Avenue,Toronto,M6M 5H4,No,No,Yes,Yes,Yes,Yes,Yes,No,No,Yes,No,No,Yes,No,No,Yes,Yes,Yes,Yes,No,Yes,None,None,43-Goldwin-Avenue-BuildingExterior.jpg,-79.50255016,43.68830093
166,Louise Towers,130 Vaughan Road,12,TCHC,Toronto Seniors Housing Corporation ,https://www.torontohousing.ca/rent,High Rise,130,Vaughan Road,Toronto,M6C 3Z6,Yes,No,Yes,Yes,No,No,No,No,No,Yes,No,No,Yes,No,No,Yes,Yes,Yes,No,No,Yes,Senior 59+,None,130-Vaughan-Road-BuildingExterior.jpg,-79.42200134,43.68477131
167,Chord Housing Co-Operative Inc. Townhouses,43 Goldwin Avenue,5,CO-OP,Chord Housing Co-Operative Inc.,None,Townhouse/ Walk-up,43,Goldwin Avenue,Toronto,M6M 5H4,No,No,Yes,Yes,Yes,Yes,Yes,No,No,Yes,No,No,Yes,No,No,Yes,Yes,Yes,Yes,No,Yes,None,None,43-Goldwin-Avenue-TownhousesExterior.jpg,-79.50255016,43.68830093
168,La Paz Co-Op Homes Inc Apartments,1 Oscar Romero Place,5,CO-OP,La Paz Co-Operative Homes Inc,None,Low Rise,1,Oscar Romero Place,Toronto,M6N 5A3,No,No,No,Yes,Yes,Yes,Yes,No,No,Yes,No,No,No,No,Yes,Yes,Yes,Yes,Yes,No,Yes,None,None,1-Oscar-Romero-Place-BuildingExterior.jpg,-79.47993889,43.67000901
169,Mabelle Place,49 Mabelle Avenue,3,TCHC,Toronto Community Housing ,https://www.torontohousing.ca/rent,High Rise,49,Mabelle Avenue,Toronto,M9A 5B1,No,No,No,No,Yes,Yes,No,No,No,Yes,No,No,No,No,No,Yes,Yes,Yes,No,No,Yes,None,None,49-Mabelle-Avenue-BuildingExterior.jpg,-79.52858579,43.64497453
170,La Paz Co-Op Homes Inc Townhouses,1-54A Oscar Romero Place,5,CO-OP,La Paz Co-Operative Homes Inc,None,Townhouse/ Walk-up,1,Oscar Romero Place,Toronto,M6N 5A3,No,No,No,Yes,Yes,Yes,Yes,No,No,Yes,No,No,No,No,Yes,Yes,Yes,Yes,Yes,No,Yes,None,None,1-54A-Oscar-Romero-Place-BuildingExterior.jpg,-79.47993889,43.67000901
171,Ridelle Co-Operative Homes,567 Ridelle Avenue,8,CO-OP,Ridelle Co-Operative Homes,None,Low Rise,567,Ridelle Avenue,Toronto,M6B 1L1,No,No,Yes,Yes,Yes,No,No,No,No,Yes,No,No,Yes,No,No,Yes,No,No,No,No,Yes,None,None,567-Ridelle-Avenue-BuildingExterior.jpg,-79.44965606,43.70183062
172,Crombie Park Apartments,25-49 Henry Lane Terrace,10,TCHC,Toronto Community Housing ,https://www.torontohousing.ca/rent,High Rise,49,Henry Lane Terrace,Toronto,M5A 4B5,No,No,Yes,Yes,Yes,Yes,Yes,No,No,Yes,No,No,No,No,No,Yes,No,No,No,No,Yes,None,None,None,-79.36982773,43.64691902
173,Crombie Park Stacked Rowhouses,1-45D Henry Lane Terrace,10,TCHC,Toronto Community Housing ,https://www.torontohousing.ca/rent,Townhouse/ Walk-up,49,Henry Lane Terrace,Toronto,M5A 4B5,No,No,Yes,Yes,Yes,Yes,Yes,No,No,Yes,No,No,No,No,No,Yes,No,No,No,No,Yes,None,None,1-45D-Henry Lane-Terrace-BuildingExterior.jpg,-79.36982773,43.64691902
174,St. John's Polish National Catholic Res.,176 Cowan Avenue,4,PNP,The Bishop Joseph Nieminski Residential Corporation,None,High Rise,176,Cowan Avenue,Toronto,M6K 3L1,Yes,No,No,Yes,Yes,No,No,No,No,Yes,No,No,Yes,No,No,Yes,Yes,Yes,Yes,No,Yes,Senior 59+,None,None,-79.43310826,43.6393771
175,Dan Harrison Community Complex,241-285 Sherbourne St,13,TCHC,Toronto Community Housing ,https://www.torontohousing.ca/rent,High Rise,251,Sherbourne Street,Toronto,M5A 2R9,No,No,Yes,Yes,Yes,Yes,Yes,No,No,No,No,No,No,No,Yes,No,Yes,Yes,No,No,Yes,None,None,251-257-Sherbourne-Street-BuildingExterior.jpg,-79.3709201,43.6592994
176,Malvern 2 North,3-23 Baldoon Road||313-347 Burrows Hall Boulevard||24-104 Crittenden Square||48-60 Crow Trail||36-63 Dowswell Drive||7-106 Dunsfold Drive||157-197 Horseley Hill Drive||7-30 Lighthall Crescent||16-64 Loradeen Crescent||189-195 Mammoth Hall Trail||6-18 McGinty Place||18 O'Henry Grove||4-10 Proud Grove||22-92 Snowball Crescent||12-27 Tunmead Square||55 Winstanley Crescent||37-99 Bradstone Square||291-302 Burrows Hall Boulevard||129-143 Crow Trail||52-184 Horseley Hill Drive||36-132 McClure Crescent||27-41 Tinbury Place||12-92 Trott Square||17-44 Whiteleas Avenue,25,TCHC,Toronto Community Housing ,https://www.torontohousing.ca/rent,Detached|Semi-Detached,8,Blackwater Crescent,Toronto,M1B 1V6,No,No,No,No,No,Yes,Yes,Yes,No,No,No,No,No,No,No,No,No,Yes,No,No,Yes,None,None,3-23-Baldoon-Road-BuildingExterior.jpg,-79.21474094,43.79984974
177,Danforth/Midland,10-30 Gordonridge Pl||40 Gordonridge Place,20,TCHC,Toronto Community Housing ,https://www.torontohousing.ca/rent,High Rise,10,Gordonridge Place,Toronto,M1K 4H6,No,No,Yes,Yes,Yes,Yes,No,No,No,Yes,No,No,No,No,No,Yes,Yes,Yes,No,No,Yes,None,None,40-Gordonridge-Place-BuildingExterior.jpg,-79.25229348,43.72696274
178,Davenport Road Apartments,250 Davenport Road,11,TCHC,Toronto Community Housing,https://www.torontohousing.ca/rent,High Rise,250,Davenport Road,Toronto,M5R 1J8,No,No,Yes,Yes,Yes,No,No,No,No,Yes,No,No,No,No,No,Yes,Yes,Yes,No,No,Yes,None,None,250-Davenport-Road-BuildingExterior.jpg,-79.39825946,43.67485056
179,Malvern 2 Rowhouses North,14 Proud Grove||39 Tinbury Place,25,TCHC,Toronto Community Housing ,https://www.torontohousing.ca/rent,Townhouse/ Walk-up,8,Blackwater Crescent,Toronto,M1B 1V6,No,No,No,No,No,Yes,Yes,Yes,No,No,No,No,No,No,No,No,No,Yes,No,No,Yes,None,None,14-Proud-Grove-BuildingExterior.jpg,-79.21474094,43.79984974
180,Davenport Road Townhouses,145 Pears Avenue,11,TCHC,Toronto Community Housing,https://www.torontohousing.ca/rent,Townhouse/ Walk-up,250,Davenport Road,Toronto,M5R 1J8,No,No,No,Yes,Yes,No,No,No,No,Yes,No,No,No,No,No,Yes,Yes,Yes,No,No,Yes,None,None,145-Pears-Avenue-BuildingExterior.jpg,-79.39825946,43.67485056
181,Malvern 2 Rowhouses South,42-86 Bradworthy Court||22-62 Bushwood Court||26-68 Dufort Court||8-84 Dunthorne Court||10-38 Henbury Place||16-135 Lowry Square||12-56 Scotney Grove,25,TCHC,Toronto Community Housing ,https://www.torontohousing.ca/rent,Townhouse/ Walk-up,8,Blackwater Crescent,Toronto,M1B 1V6,No,No,No,No,No,Yes,Yes,Yes,No,No,No,No,No,No,No,No,No,Yes,No,No,Yes,None,None,42-86-Bradworthy-Court-BuildingExterior.jpg,-79.21474094,43.79984974
182,Demarco Boulevard Apartments,2 Demarco Blvd||1620 - 1622 Lawrence Ave W,5,TCHC,Toronto Community Housing,https://www.torontohousing.ca/rent,Low Rise,2,Demarco Boulevard,Toronto,M6L 2W1,No,No,No,Yes,Yes,Yes,No,No,No,Yes,No,No,No,No,No,Yes,No,No,No,No,Yes,None,None,2-DeMarco-Boulevard-BuildingExterior.jpg,-79.49071389,43.70631262
183,Dixington Crescent,42-50 Dixington Crescent,2,TCHC,Toronto Community Housing ,https://www.torontohousing.ca/rent,Townhouse/ Walk-up,42,Dixington Crescent,Toronto,M9P 2K4,No,No,No,No,No,Yes,Yes,No,No,No,No,No,No,No,No,Yes,No,Yes,No,No,Yes,None,None,42-50-Dixington-Crescent-BuildingExterior.jpg,-79.54118667,43.69736619
184,Malvern 2 South,8-96 Blackwater Crescent||9-33 Brisbourne Grove||21-43 Gemshaw Crescent||36-48 Greypoint Drive||16 Kessack Court||5 Tillbrook Court||48-104 Wickson Trail||7-90 Winstanley Crescent||18-20 Burkwood Crescent||26-28 Greypoint Drive||34 Kessack Court||39-53 Lowry Square||84-107 Quantrell Trail,25,TCHC,Toronto Community Housing ,https://www.torontohousing.ca/rent,Detached|Semi-Detached,8,Blackwater Crescent,Toronto,M1B 1V6,No,No,No,No,No,Yes,Yes,Yes,No,No,No,No,No,No,No,No,No,Yes,No,No,Yes,None,None,8-96-Blackwater-Crescent-BuildingExterior.jpg,-79.21474094,43.79984974
185,Don Summerville,1555-1575 Queen Street East,14,TCHC,Toronto Community Housing ,https://www.torontohousing.ca/rent,Low Rise,1555,Queen Street East,Toronto,M4L 1E6,No,No,No,Yes,Yes,Yes,No,No,No,Yes,No,No,No,No,No,Yes,Yes,Yes,No,No,Yes,None,None,1575-Queen-Street-East-BuildingExterior.jpg,-79.3187005,43.6656625
186,Malvern 2 Townhouses North,28-123 Bradstone Square||17-29 Carrying Place||22-38 Crow Trail||40-50 Dunsfold Drive||23-200 Horseley Hill Drive||136-236 Mammoth Hall Trail||24-89 Trott Square,25,TCHC,Toronto Community Housing ,https://www.torontohousing.ca/rent,Townhouse/ Walk-up,8,Blackwater Crescent,Toronto,M1B 1V6,No,No,No,No,No,Yes,Yes,Yes,No,No,No,No,No,No,No,No,No,Yes,No,No,Yes,None,None,28-123-Bradstone-Square-BuildingExterior.jpg,-79.21474094,43.79984974
187,Malvern 2 Townhouses South,5-7 Lowry Square||118-167 Quantrell Trail,25,TCHC,Toronto Community Housing ,https://www.torontohousing.ca/rent,Townhouse/ Walk-up,8,Blackwater Crescent,Toronto,M1B 1V6,No,No,No,No,No,Yes,Yes,Yes,No,No,No,No,No,No,No,No,No,Yes,No,No,Yes,None,None,5-7-Lowry-Square-BuildingExterior.jpg,-79.21474094,43.79984974
188,Donvale Manor,330 Gerrard Street East,13,TCHC,Toronto Seniors Housing Corporation ,https://www.torontohousing.ca/rent,High Rise,330,Gerrard Street East,Toronto,M5A 3V4,Yes,No,No,Yes,No,No,No,No,No,Yes,No,No,No,No,No,Yes,No,No,No,No,Yes,Seniors Only 59+,None,330-Gerrard-Streat-East-BuildingExterior.jpg,-79.36539025,43.66260914
189,Marjory Carton Apartments,193 Wilson Avenue,8,TCHC,Toronto Seniors Housing Corporation ,https://www.torontohousing.ca/rent,High Rise,193,Wilson Avenue,Toronto,M5M 4M8,Yes,No,Yes,Yes,No,No,No,No,No,Yes,No,Yes,Yes,No,No,Yes,Yes,Yes,No,No,Yes,Senior 59+,None,193-Wilson-Avenue-BuildingExterior.jpg,-79.42267238,43.73928898
190,Doug Saunders Apartments,1775 Eglinton Avenue West,12,TCHC,Toronto Seniors Housing Corporation ,https://www.torontohousing.ca/rent,High Rise,1775,Eglinton Avenue West,Toronto,M6E 4Z9,Yes,No,Yes,Yes,No,No,No,No,No,Yes,No,No,Yes,No,No,Yes,Yes,Yes,No,No,Yes,Senior 59+,None,1775-Eglinton-Avenue-West-BuildingExterior.jpg,-79.4487815,43.69581234
191,Downsview Acres,2195 Jane Street,6,TCHC,Toronto Community Housing ,https://www.torontohousing.ca/rent,High Rise,2195,Jane Street,Toronto,M3M 1A3,No,No,Yes,Yes,No,No,No,No,No,Yes,No,No,Yes,No,No,Yes,Yes,No,No,No,Yes,None,None,2195-Jane-Street-BuildingExterior.jpg,-79.50793002,43.72221347
192,Martin Grove/Albion,1674-1680 Albion Road,1,TCHC,Toronto Community Housing,https://www.torontohousing.ca/rent,Townhouse/ Walk-up,1674,Albion Road,Toronto,M9V 1B8,No,No,No,No,No,Yes,Yes,No,No,None,None,None,None,None,None,None,None,No,None,None,None,None,None,1674-1680-Albion-Road-BuildingExterior.jpg,-79.59602638,43.74256802
193,Dufferin/Gwynne Apartments,300 Dufferin Street,4,TCHC,Toronto Community Housing ,https://www.torontohousing.ca/rent,High Rise,300,Dufferin Street,Toronto,M6K 3E5,No,No,Yes,Yes,Yes,Yes,Yes,No,No,No,No,No,Yes,No,No,Yes,Yes,Yes,No,No,Yes,None,None,300-Dufferin-Street-BuildingExterior.jpg,-79.4281872,43.63955188
194,Dufferin/Gwynne Townhouses,9-23A Gwynne Avenue,4,TCHC,Toronto Community Housing ,https://www.torontohousing.ca/rent,Townhouse/ Walk-up,300,Dufferin Street,Toronto,M6K 3E5,No,No,Yes,Yes,Yes,Yes,Yes,No,No,No,No,No,Yes,No,No,Yes,Yes,Yes,No,No,Yes,None,None,9-23A-Gwynne-Avenue-BuildingExterior.jpg,-79.4281872,43.63955188
195,May Birchard Apartments,859 Dundas Street East,14,TCHC,Toronto Seniors Housing Corporation ,https://www.torontohousing.ca/rent,High Rise,859,Dundas Street East,Toronto,M4M 3G4,Yes,No,Yes,Yes,No,No,No,No,No,No,Yes,No,Yes,No,No,Yes,No,No,No,No,Yes,Senior 59+,None,859-Dundas-Street-East-BuildingExterior.jpg,-79.35167947,43.66211596
196,Dufferin/Wilson,4247-4309 Dufferin Street||757 Wilson Heights Boulevard,6,TCHC,Toronto Community Housing ,https://www.torontohousing.ca/rent,Townhouse/ Walk-up,757,Wilson Heights Boulevard,Toronto,M3H 2W1,No,No,No,No,No,Yes,No,No,No,No,No,No,No,No,No,No,No,No,No,No,Yes,None,None,4247-4309-Dufferin-Street-BuildingExterior.jpg,-79.46377904,43.76026642
197,May Robinson Apartments,20 West Lodge Avenue||25 West Lodge Avenue,4,TCHC,Toronto Seniors Housing Corporation ,https://www.torontohousing.ca/rent,High Rise|Low Rise,20,West Lodge Avenue,Toronto,M6K 2T4,Yes,No,Yes,Yes,No,No,No,No,No,No,No,No,Yes,Yes,No,Yes,No,No,No,No,Yes,Senior 59+,None,25-West-Lodge-Avenue-BuildingExterior.jpg,-79.43635834,43.64219007
198,Duncanwoods,206-218 Duncanwoods Drive,7,TCHC,Toronto Community Housing,https://www.torontohousing.ca/rent,Townhouse/ Walk-up,206,Duncanwoods Drive,Toronto,M9L 2E6,No,No,No,No,No,Yes,Yes,No,No,No,No,No,No,No,No,Yes,No,No,No,No,Yes,None,None,206-218-Duncanwoods-Drive-BuildingExterior.jpg,-79.56735756,43.75490597
199,McCaul Street Project Apartments,22 McCaul Street,10,TCHC,Toronto Community Housing ,https://www.torontohousing.ca/rent,High Rise,22,McCaul Street,Toronto,M5T 3C2,No,No,No,Yes,Yes,Yes,No,No,No,Yes,No,No,Yes,No,No,Yes,Yes,Yes,No,No,Yes,None,None,22-McCaul-Street-BuildingExterior.jpg,-79.39048259,43.65122022
200,Dundas Gooch,3725-3735 Dundas Street West,4,TCHC,Toronto Community Housing ,https://www.torontohousing.ca/rent,High Rise,3735,Dundas Street West,Toronto,M6S 2T6,No,No,No,Yes,Yes,No,No,No,No,No,No,No,No,No,No,Yes,Yes,Yes,No,No,Yes,None,None,3725-3735-Dundas-Street-West-BuildingExterior.jpg,-79.49926274,43.66527448
201,McCaul Street Project Rowhouses,13-19 St. Patrick's Square,10,TCHC,Toronto Community Housing ,https://www.torontohousing.ca/rent,Townhouse/ Walk-up,22,McCaul Street,Toronto,M5T 3C2,No,No,No,Yes,Yes,Yes,No,No,No,Yes,No,No,Yes,No,No,Yes,Yes,Yes,No,No,Yes,None,None,13-19-St-Patrick's-Square-BuildingExterior.jpg,-79.39048259,43.65122022
202,Dundas/Beverley,133-147 Beverley St||37-41 D'Arcy Street||370 Dundas Street West,11,TCHC,Toronto Community Housing ,https://www.torontohousing.ca/rent,Townhouse/ Walk-up,133,Beverley Street,Toronto,M5T 1Y4,No,No,Yes,Yes,Yes,Yes,Yes,Yes,No,No,No,No,No,No,No,Yes,No,No,No,No,Yes,None,None,133-147-Beverley-Street-BuildingExterior.jpg,-79.39361331,43.65409893
203,McCaul Street Project Townhouses,22A-22J McCaul Street,10,TCHC,Toronto Community Housing ,https://www.torontohousing.ca/rent,Townhouse/ Walk-up,22,McCaul Street,Toronto,M5T 3C2,No,No,No,Yes,Yes,Yes,No,No,No,Yes,No,No,Yes,No,No,Yes,Yes,Yes,No,No,Yes,None,None,22A-22J-McCaul-Street-BuildingExterior.jpg,-79.39048259,43.65122022
204,McClain Park Apartments,10 Glen Everest Road,20,TCHC,Toronto Community Housing ,https://www.torontohousing.ca/rent,High Rise,10,Glen Everest Rd,Toronto,M1N 1J4,No,No,Yes,Yes,No,No,No,No,No,No,Yes,No,Yes,No,No,Yes,Yes,No,No,No,Yes,None,None,10-Glen-Everest-Road-BuildingExterior.jpg,-79.25477867,43.69932241
205,McCormick Park,1525 Dundas St W,9,TCHC,Toronto Community Housing ,https://www.torontohousing.ca/rent,High Rise,1525,Dundas St W,Toronto,M6K 1T7,No,No,Yes,Yes,Yes,Yes,No,No,No,Yes,No,No,No,No,No,Yes,No,No,No,No,Yes,None,None,1525-Dundas-Street-West-BuildingExterior.jpg,-79.43241883,43.64916379
206,Dundas/Mabelle,5005 Dundas Street West||57 Mabelle Avenue,3,TCHC,Toronto Community Housing,https://www.torontohousing.ca/rent,High Rise,5005,Dundas Street West,Toronto,M9A 4Y6,No,No,No,Yes,Yes,No,No,No,No,Yes,No,No,No,No,No,Yes,Yes,Yes,No,No,Yes,None,None,5005-Dundas-Street-West-BuildingExterior.jpg,-79.53072049,43.64605397
207,McCowan Road 1 Apartments,400 McCowan Rd,21,TCHC,Toronto Community Housing ,https://www.torontohousing.ca/rent,High Rise,410,McCowan Road,Toronto,M1J 1J4,No,No,No,Yes,Yes,Yes,Yes,Yes,No,No,No,No,No,No,No,No,No,No,No,No,Yes,None,None,400-McCowan-Road-BuildingExterior.jpg,-79.24054936,43.74205173
208,Willow Glen Co-Operative Inc.,38 Thorncliffe Park Drive,15,CO-OP,Willow Glen Co-Operative Inc.,None,High Rise,38,Thorncliffe Park Drive,Toronto,M4H 1J9,No,No,Yes,Yes,Yes,No,No,No,No,No,No,No,Yes,No,Yes,Yes,Yes,No,No,No,Yes,None,None,38-Thorncliffe-Park-Drive-BuildingExterior.jpg,-79.34402868,43.70265667
209,McCowan Road 1 Rowhouses,410 McCowan Road,21,TCHC,Toronto Community Housing ,https://www.torontohousing.ca/rent,Townhouse/ Walk-up,410,McCowan Road,Toronto,M1J 1J4,No,No,No,Yes,Yes,Yes,Yes,Yes,No,No,No,No,No,No,No,No,No,No,No,No,Yes,None,None,410-McCowan-Road-BuildingExterior.jpg,-79.24054936,43.74205173
210,Palisades Housing Co-Op,1206 Wilson Avenue,6,CO-OP,Palisades Housing Co-Op,None,High Rise,1206,Wilson Avenue,Toronto,M3M 3G7,No,No,No,Yes,Yes,Yes,No,No,No,No,No,Yes,Yes,No,No,Yes,Yes,Yes,Yes,No,Yes,None,None,1206-Wilson-Avenue-BuildingExterior.jpg,-79.48942496,43.72530874
211,McMurrich Place,18 Davenport Road,11,TCHC,Toronto Seniors Housing Corporation ,https://www.torontohousing.ca/rent,High Rise,18,Davenport Road,Toronto,M5R 3M3,Yes,No,Yes,Yes,No,No,No,No,No,Yes,No,No,No,No,No,Yes,Yes,Yes,No,No,Yes,Senior 59+,None,18-Davenport-Road-BuildingExterior.jpg,-79.38872594,43.67311548
212,Wilcox Creek Housing Co-Operative Inc Stacked Rowhouses,35-50A Forest Creek Pathway||34A-36A Wilcox Creek Pathway,25,CO-OP,Wilcox Creek Housing Co-Operative,None,Townhouse/ Walk-up,22,Forest Creek Pathway,Toronto,M1B 5K8,No,No,No,Yes,Yes,Yes,Yes,No,No,Yes,No,No,No,No,No,Yes,Yes,Yes,Yes,No,Yes,None,None,34-36-Wilcox-Creek-Pathway-BuildingExterior.jpg,-79.21185523,43.81861042
213,Midland Avenue,1201 Midland Avenue,21,TCHC,Toronto Community Housing ,https://www.torontohousing.ca/rent,Townhouse/ Walk-up,1201,Midland Avenue,Toronto,M1K 4H1,No,No,No,No,Yes,Yes,Yes,No,No,No,No,No,No,No,No,Yes,No,No,No,No,Yes,None,None,1201-Midland-Avenue-BuildingExterior.jpg,-79.26299464,43.74712011
214,Wilcox Creek Housing Co-Operative Inc Townhouses,22-74 Forest Creek Pathway||1-53 Wilcox Creek Pathway,25,CO-OP,Wilcox Creek Housing Co-Operative,None,Townhouse/ Walk-up,22,Forest Creek Pathway,Toronto,M1B 5K8,No,No,No,Yes,Yes,Yes,Yes,No,No,Yes,No,No,No,No,No,Yes,Yes,Yes,Yes,No,Yes,None,None,22-74-Forest-Creek-Pathway-BuildingExterior.jpg,-79.21185523,43.81861042
215,Montgomery Place,130 Eglinton Avenue East,12,TCHC,Toronto Seniors Housing Corporation ,https://www.torontohousing.ca/rent,High Rise,130,Eglinton Avenue East,Toronto,M4P 2X9,Yes,No,Yes,Yes,No,No,No,No,No,Yes,No,No,No,No,No,Yes,Yes,Yes,No,No,Yes,Senior 59+,None,130-Eglinton-Avenue-East-BuildingExterior.jpg,-79.3945784,43.70803251
216,Dunn Avenue,245 Dunn Avenue,4,TCHC,Toronto Community Housing ,https://www.torontohousing.ca/rent,High Rise,245,Dunn Avenue,Toronto,M6K 1S6,No,No,Yes,Yes,Yes,Yes,No,No,No,Yes,No,No,No,No,No,Yes,Yes,Yes,No,No,Yes,None,None,245-Dunn-Avenue-BuildingExterior.jpg,-79.43377835,43.64021606
217,Moore Place,801 Mount Pleasant Road,15,TCHC,Toronto Seniors Housing Corporation ,https://www.torontohousing.ca/rent,High Rise,801,Mount Pleasant Road,Toronto,M4P 2Z4,Yes,No,Yes,Yes,No,No,No,No,No,Yes,No,No,No,No,No,Yes,Yes,Yes,No,No,Yes,Senior 59+,None,801-Mount-Pleasant-Road-BuildingExterior.jpg,-79.38985444,43.7088453
218,Eagle Manor,1901 Weston Road,5,TCHC,Toronto Community Housing ,https://www.torontohousing.ca/rent,High Rise,1901,Weston Road,Toronto,M9N 3P1,No,No,Yes,Yes,No,No,No,No,No,Yes,No,No,Yes,No,No,Yes,Yes,No,No,No,Yes,None,None,1901-Weston-Road-BuildingExterior.jpg,-79.51599334,43.70058906
219,Mornelle/Ellesmere,110 Mornelle  Court,24,TCHC,Toronto Community Housing,https://www.torontohousing.ca/rent,High Rise,110,Mornelle  Court,Toronto,M1E 4R1,No,No,No,Yes,Yes,Yes,No,No,No,Yes,No,No,No,No,No,Yes,No,No,No,No,Yes,None,None,110-Mornelle-Court-BuildingExterior.jpg,-79.19441406,43.78649569
220,East Mall,607-635 The East Mall,2,TCHC,Toronto Community Housing,https://www.torontohousing.ca/rent,Townhouse/ Walk-up,607,The East Mall,Toronto,M9B 4A9,No,No,No,No,Yes,Yes,No,No,No,No,No,No,No,No,No,Yes,No,No,No,No,Yes,None,None,607-635-The-East-Mall-BuildingExterior.jpg,-79.56456976,43.65647428
221,Mornelle/Morningside,90 Mornelle Court,24,TCHC,Toronto Community Housing,https://www.torontohousing.ca/rent,High Rise,90,Mornelle Court,Toronto,M1E 4P9,No,No,No,Yes,Yes,Yes,No,No,No,Yes,No,No,No,No,No,Yes,No,No,No,No,Yes,None,None,90-Mornelle-Court-BuildingExterior.jpg,-79.19611664,43.78781571
222,Morningside Apartments,4205 Lawrence Ave East,25,TCHC,Toronto Community Housing,https://www.torontohousing.ca/rent,High Rise,4205,Lawrence Ave East,Toronto,M1E 4S6,No,No,Yes,Yes,No,No,No,No,No,Yes,No,No,Yes,Yes,No,Yes,Yes,No,No,No,Yes,None,None,4205-Lawrence-Avenue-East-BuildingExterior.jpg,-79.18535027,43.76799274
223,East York Acres,9 Haldon Avenue,19,TCHC,Toronto Seniors Housing Corporation ,https://www.torontohousing.ca/rent,High Rise,9,Haldon Avenue,Toronto,M4C 4P5,Yes,No,Yes,Yes,No,No,No,No,No,Yes,No,No,Yes,No,No,Yes,No,No,No,No,Yes,Senior 59+,None,9-Haldon-Avenue-BuildingExterior.jpg,-79.3115237,43.6985245
224,Morningside/Coronation,101-230 Danzig Street,25,TCHC,Toronto Community Housing,https://www.torontohousing.ca/rent,Townhouse/ Walk-up,101,Danzig Street,Toronto,M1E 2L5,No,No,No,No,No,Yes,Yes,No,No,No,No,No,No,No,No,No,No,No,No,No,Yes,None,None,101-230-Danzig-Street-BuildingExterior.jpg,-79.18282913,43.76451421
225,Morningside/Ling,225 Morningside Avenue,25,TCHC,Toronto Community Housing,https://www.torontohousing.ca/rent,High Rise,225,Morningside Avenue,Toronto,M1E 3E5,No,No,Yes,Yes,Yes,Yes,No,No,No,Yes,No,No,No,No,No,Yes,Yes,Yes,No,No,Yes,None,None,225-Mornginside-Avenue-BuildingExterior.jpg,-79.1850077,43.76710707
226,Eastview Park,1080 Eastern Avenue,19,TCHC,Toronto Community Housing ,https://www.torontohousing.ca/rent,High Rise,1080,Eastern Avenue,Toronto,M4L 1B1,No,No,Yes,Yes,Yes,No,No,No,No,Yes,No,No,No,No,No,Yes,No,No,No,No,Yes,None,None,1080-Eastern-Avenue-BuildingExterior.jpg,-79.31604341,43.66585972
227,Edgeley Apartments,35 Shoreham Drive,7,TCHC,Toronto Seniors Housing Corporation ,https://www.torontohousing.ca/rent,High Rise,35,Shoreham Drive,Toronto,M3N 1S5,Yes,No,Yes,Yes,No,No,No,No,No,Yes,No,No,Yes,No,No,Yes,Yes,No,No,No,Yes,Senior 59+,None,35-Shoreham-Drive-BuildingExterior.jpg,-79.51860261,43.76868768
228,Moss Park,275-295 Shuter Street,13,TCHC,Toronto Community Housing ,https://www.torontohousing.ca/rent,High Rise,275,Shuter Street,Toronto,M5A 1W4,No,No,Yes,Yes,Yes,Yes,Yes,No,No,Yes,No,No,No,No,No,Yes,Yes,Yes,No,No,Yes,None,None,275-Shuter-Street-BuildingExterior.jpg,-79.36788599,43.65574079
229,Edgeley Village Apartments,415 Driftwood Avenue,7,TCHC,Toronto Community Housing ,https://www.torontohousing.ca/rent,High Rise,415,Driftwood Avenue,Toronto,M1N 2P7,No,No,No,Yes,Yes,Yes,Yes,Yes,No,Yes,No,No,No,No,No,Yes,No,Yes,No,No,Yes,None,None,415-Driftwood-Avenue-BuildingExterior.jpg,-79.51647655,43.76731948
230,Mount Dennis Apartments,101 Humber Boulevard,5,TCHC,Toronto Community Housing ,https://www.torontohousing.ca/rent,High Rise,101,Humber Boulevard,Toronto,M6N 2H5,No,No,Yes,Yes,No,No,No,No,No,Yes,No,No,Yes,No,No,Yes,Yes,No,No,No,Yes,None,None,101-Humber-Boulevard-BuildingExterior.jpg,-79.48201896,43.67980256
231,Edgeley Village Rowhouses,388-404 Driftwood Avenue||1-23 Driftwood Court||1-25 Shoreham Court,7,TCHC,Toronto Community Housing ,https://www.torontohousing.ca/rent,Townhouse/ Walk-up,415,Driftwood Avenue,Toronto,M1N 2P7,No,No,No,Yes,Yes,Yes,Yes,Yes,No,Yes,No,No,No,No,No,Yes,No,Yes,No,No,Yes,None,None,388-404-Driftwood-Avenue-BuildingExterior.jpg,-79.51647655,43.76731948
232,Mutual Street,145 Mutual Street,13,TCHC,Toronto Community Housing,https://www.torontohousing.ca/rent,High Rise,145,Mutual Street,Toronto,M5B 2K5,No,No,No,Yes,Yes,Yes,No,No,No,Yes,No,No,Yes,No,No,No,Yes,Yes,No,No,Yes,None,None,145-Mutual-Street-BuildingExterior.jpg,-79.3763412,43.65910237
233,Akwa Honsta,23 Edgewood Avenue||136 Kingston Road,19,PNP,Akwa Honsta Non-Profit Aboriginal Homes Inc.,None,Low Rise,136,Kingston Road,Toronto,M4L 1S8,No,No,Yes,Yes,Yes,Yes,No,No,No,Yes,No,No,No,No,No,Yes,No,No,No,No,No,Market Unit On 3B,None,23-Edgewood-Avenue-BuildingExterior.jpg,-79.31162559,43.67072535
234,Mutual Street Project,25 Mutual Street,13,TCHC,Toronto Community Housing,https://www.torontohousing.ca/rent,High Rise,25,Mutual Street,Toronto,M5B 2K1,No,No,No,Yes,Yes,Yes,No,No,No,Yes,No,No,Yes,No,No,No,Yes,Yes,No,No,Yes,None,None,25-Mutual-Street-BuildingExterior.jpg,-79.3743499,43.65431288
235,Mimico Co-Operative Homes Inc. Apartments,1 Summerhill Road,3,CO-OP,Mimico Co-Operative Homes Inc.,None,High Rise,1,Summerhill Road,Toronto,M8V 1R9,No,No,No,Yes,Yes,Yes,Yes,No,No,Yes,No,No,No,No,No,Yes,Yes,Yes,Yes,No,Yes,None,None,1-Summerhill-Road-BuildingExterior.jpg,-79.48850578,43.6115877
236,Neilson Hall Apartments,1315 Neilson Road,25,TCHC,Toronto Seniors Housing Corporation ,https://www.torontohousing.ca/rent,High Rise,1315,Neilson Road,Toronto,M1B 5N2,Yes,No,No,Yes,Yes,No,No,No,No,No,No,No,Yes,No,No,Yes,Yes,Yes,No,No,Yes,Senior 59+,None,1315-Neilson-Road-BuildingExterior.jpg,-79.21881218,43.80778696
237,Mimico Co-Operative Homes Inc. Townhouses,2-38 Summerhill Road,3,CO-OP,Mimico Co-Operative Homes Inc.,None,Townhouse/ Walk-up,1,Summerhill Road,Toronto,M8V 1R9,No,No,No,Yes,Yes,Yes,Yes,No,No,Yes,No,No,No,No,No,Yes,Yes,Yes,Yes,No,Yes,None,None,2-38-Summerhill-Road-BuildingExterior.jpg,-79.48850578,43.6115877
238,Neptune,135-155 Neptune Drive,8,TCHC,Toronto Community Housing ,https://www.torontohousing.ca/rent,Low Rise,135,Neptune Drive,Toronto,M6A 2Y3,No,No,No,No,Yes,Yes,No,No,No,Yes,No,No,No,No,No,Yes,No,No,No,No,Yes,None,None,135-155-Neptune-Drive-BuildingExterior.jpg,-79.44050099,43.72991531
239,Canadian Macedonian Place,850 O'Connor Drive,19,PNP,Canadian Macedonian Association Senior Citizen Centre,None,High Rise,850,O'Connor Drive,Toronto,M4B 3L6,Yes,No,No,Yes,No,No,No,No,No,Yes,No,No,No,No,No,Yes,No,Yes,No,No,Yes,Senior 59+ / Macedonian Origin,None,850-O'Connor-Drive-BuildingExterior.jpg,-79.31227991,43.70706077
240,Emmanuel Lutheran Manor Victoria Village,1684 Victoria Park Avenue,16,PNP,Emmanuel Lutheran Manor Victoria Village,None,High Rise,1684,Victoria Park Avenue,Toronto,M1R 1R1,Yes,No,No,Yes,Yes,No,No,No,No,Yes,No,No,Yes,No,No,Yes,Yes,Yes,No,No,Yes,Senior 59+,None,1684-Victoria Park-Avenue-BuildingExterior.jpg,-79.30659692,43.73288928
241,Newbold Avenue Project,11 Newbold Avenue,19,TCHC,Toronto Community Housing ,https://www.torontohousing.ca/rent,Townhouse/ Walk-up,11,Newbold Avenue,Toronto,M4L 2G6,No,No,No,Yes,Yes,Yes,No,No,No,Yes,No,No,No,No,No,No,Yes,Yes,No,No,Yes,None,None,11-Newbold-Avenue-BuildingExterior.jpg,-79.31760382,43.67494793
242,Frederick J. Beavis Apts. For Seniors,110 Unity Road,14,PNP,Widworthy Charitable Foundation,None,High Rise,110,Unity Road,Toronto,M4J 5A9,Yes,No,Yes,Yes,Yes,No,No,No,No,Yes,No,No,No,No,No,Yes,Yes,Yes,No,No,Yes,Senior 59+,None,110-Unity-Road-BuildingExterior.jpg,-79.32992978,43.67793242
243,Northacres,2-20 Flemington Road,8,TCHC,Toronto Seniors Housing Corporation ,https://www.torontohousing.ca/rent,Townhouse/ Walk-up,2,Flemington Road,Toronto,M6A 2N7,Yes,No,Yes,Yes,No,No,No,No,No,Yes,No,No,No,No,No,Yes,No,No,No,No,Yes,Senior 59+,None,2-20-Flemington-Road-BuildingExterior.jpg,-79.44197162,43.7198365
244,Green Meadows,100 Unity Road,14,PNP,Heathercross Charitable Foundation,None,High Rise,100,Unity Road,Toronto,M4J 5B2,Yes,No,Yes,Yes,No,No,No,No,No,Yes,No,No,No,No,No,Yes,Yes,Yes,No,No,Yes,Senior 59+,None,100-Unity-Road-BuildingExterior.jpg,-79.33049255,43.677803
245,Northcliffe,659 Northcliffe Blvd,12,TCHC,Toronto Community Housing ,https://www.torontohousing.ca/rent,High Rise,659,Northcliffe Blvd,Toronto,M6E 5B3,No,No,No,Yes,Yes,No,No,No,No,No,No,No,No,No,No,No,No,Yes,No,No,Yes,None,None,659-Northcliffe-Boulevard-BuildingExterior.jpg,-79.44723409,43.69581245
246,Hellenic Home For The Aged Inc. Apartments,11 Winona Drive||39 Winona Drive,12,PNP,Hellenic Home For The Aged Inc,None,High Rise|Low Rise,33,Winona Drive,Toronto,M6G 3Z7,Yes,No,No,Yes,Yes,No,No,No,No,Yes,No,No,Yes,No,No,Yes,Yes,Yes,Yes,No,Yes,Senior 59+ Greek Origin,None,11-Winona-Drive-BuildingExterior.jpg,-79.43061618,43.67641744
247,Northwood Apartments,3680 Keele Street,7,TCHC,Toronto Community Housing ,https://www.torontohousing.ca/rent,Low Rise,3680,Keele Street,Toronto,M3J 1M2,No,No,Yes,Yes,No,No,No,No,No,Yes,No,No,Yes,No,No,Yes,No,No,No,No,Yes,None,None,3680-Keele-Street-BuildingExterior.jpg,-79.48953565,43.75374877
248,La Place St. Laurent,33 Hahn Place,10,PNP,Les Centres D'Accueil Heritage,None,High Rise,33,Hahn Place,Toronto,M5A 4G2,Yes,No,No,Yes,Yes,No,No,No,No,Yes,No,No,Yes,No,No,Yes,Yes,Yes,No,No,No,French Speaking Seniors,None,33-Hahn-Place-BuildingExterior.jpg,-79.36270023,43.64941109
249,St. Clair O'Connor Community Inc.,2703 St. Clair Avenue East,19,PNP,St Clair O'Connor Community Inc,None,High Rise,2703,St. Clair Avenue East,Toronto,M4B 3M3,No,No,Yes,Yes,Yes,Yes,No,No,Yes,Yes,No,No,No,No,No,Yes,No,Yes,No,No,Yes,1 Bedrooms For Seniors 59+ Only,None,2703-St-Clair-Avenue-East-BuildingExterior.jpg,-79.31113501,43.70560923
250,O'Connor Drive,5-77 Parma Court||15-45 Wakunda Place,19,TCHC,Toronto Community Housing ,https://www.torontohousing.ca/rent,Semi-Detached,90,Parma Court,Toronto,M4A 1A6,No,No,Yes,Yes,Yes,Yes,Yes,Yes,No,Yes,No,No,No,No,No,No,Yes,Yes,No,No,Yes,None,None,5-Parma-Court-BuildingExterior.jpg,-79.30100245,43.71720437
251,St. David's Village Retirement Residence,1290 Danforth Road,21,PNP,St. David's  Village Corporation,None,High Rise,1290,Danforth Road,Toronto,M1J 3L9,Yes,No,Yes,Yes,No,No,No,No,No,No,No,No,Yes,No,Yes,Yes,Yes,No,No,No,No,Senior 59+,None,1290-Danforth-Road-BuildingExterior.jpg,-79.24579605,43.74077529
252,O'Connor Drive Apartments,90 Parma Court,19,TCHC,Toronto Community Housing ,https://www.torontohousing.ca/rent,High Rise,90,Parma Court,Toronto,M4A 1A6,No,No,Yes,Yes,Yes,Yes,Yes,Yes,No,Yes,No,No,No,No,No,No,Yes,Yes,No,No,Yes,None,None,90-Parma-Court-BuildingExterior.jpg,-79.30100245,43.71720437
253,St. Hilda's Towers Inc,2339 Dufferin Street||800 Vaughan Road,12,PNP,The St Hilda's Towers Inc,None,High Rise,2339,Dufferin Street,Toronto,M6E 4Z5,Yes,No,Yes,Yes,No,No,No,No,No,Yes,No,Yes,Yes,No,No,Yes,Yes,No,Yes,No,No,Senior 59+,None,None,-79.44949042,43.69476831
254,O'Connor Drive Rowhouses,6-100 Parma Court||20-42 Wakunda Place,19,TCHC,Toronto Community Housing ,https://www.torontohousing.ca/rent,Townhouse/ Walk-up,90,Parma Court,Toronto,M4A 1A6,No,No,Yes,Yes,Yes,Yes,Yes,Yes,No,Yes,No,No,No,No,No,No,Yes,Yes,No,No,Yes,None,None,6-100-Parma-Court-BuildingExterior.jpg,-79.30100245,43.71720437
255,St. Matthew's Bracondale House,707 St. Clair Avenue West,12,PNP,St Matthew's Bracondale House,None,High Rise,707,St. Clair Avenue West,Toronto,M6C 4A1,Yes,No,Yes,Yes,No,No,No,No,No,Yes,No,No,Yes,No,No,Yes,Yes,No,No,No,No,Senior 59+,None,707-St-Clair-Avenue-West-BuildingExterior.jpg,-79.42661481,43.68122303
256,Ontario Street Project,295-299B Ontario Street,13,TCHC,Toronto Community Housing ,https://www.torontohousing.ca/rent,Townhouse/ Walk-up,295,Ontario Street,Toronto,M5A 2V8,No,No,No,Yes,Yes,No,No,No,No,No,No,No,No,Yes,No,Yes,No,No,No,No,Yes,None,None,295-299B-Ontario-Street-BuildingExterior.jpg,-79.36850898,43.6594329
257,St. Paul's L'Amoreaux Centre,3333 Finch Avenue East,22,PNP,St Paul's L'Amoreaux Centre,None,High Rise,3333,Finch Avenue East,Toronto,M1W 2R9,Yes,No,Yes,Yes,No,No,No,No,No,No,No,No,Yes,No,No,Yes,Yes,No,No,No,Yes,None,None,3333-Finch-Avenue-East-BuildingExterior.jpg,-79.31681375,43.79609331
258,Outlook Manor,55 Outlook Avenue,5,TCHC,Toronto Seniors Housing Corporation ,https://www.torontohousing.ca/rent,High Rise,55,Outlook Avenue,Toronto,M6N 4Y3,Yes,No,Yes,Yes,No,No,No,No,No,Yes,No,No,Yes,No,No,Yes,Yes,Yes,No,No,Yes,Senior 59+,None,55-Outlook-Avenue-BuildingExterior.jpg,-79.4962404,43.67844684
259,Sts. Peter And Paul Ukrainian Community Homes,221 Milner Avenue,23,PNP,Sts Peter And Paul Ukrainian Community Homes,None,High Rise,221,Milner Avenue,Toronto,M1S 4P4,Yes,No,No,Yes,No,No,No,No,No,Yes,No,Yes,Yes,No,Yes,Yes,Yes,Yes,No,Yes,Yes,Seniors 59+,None,221-Milner-Avenue-BuildingExterior.jpg,-79.2401309,43.78834752
260,Overbrook Place,750 Wilson Heights Boulevard,6,TCHC,Toronto Community Housing ,https://www.torontohousing.ca/rent,High Rise,750,Wilson Heights Boulevard,Toronto,M3H 6B1,No,No,No,Yes,No,No,No,No,No,Yes,No,Yes,Yes,No,No,Yes,Yes,Yes,No,No,Yes,None,None,750-Wilson-Heights-Boulevard-BuildingExterior.jpg,-79.46438207,43.75990252
261,Terra Nova Senior Citizens Building,1289 Dundas Street West,9,PNP,Villa Luso Non Profit Housing Corporation,None,High Rise,1289,Dundas Street West,Toronto,M6J 3S2,Yes,No,Yes,Yes,No,No,No,No,No,Yes,No,No,No,No,No,Yes,No,Yes,No,No,Yes,Senior 59+,None,1289-Dundas-Street-West-BuildingExterior.jpg,-79.42541934,43.6492214
262,Parkwoods/Rayoak,51 Parkwoods Village Dr||14 Rayoak Drive,16,TCHC,Toronto Community Housing ,https://www.torontohousing.ca/rent,High Rise,14,Rayoak Drive,Toronto,M3A 2Y4,No,No,No,Yes,Yes,Yes,No,No,No,Yes,No,No,No,No,No,Yes,Yes,No,No,No,Yes,None,None,51-Parkwoods-Village-Drive-BuildingExterior.jpg,-79.3194128,43.75984788
263,The Wexford,1860 Lawrence Avenue East,21,PNP,Wexford Residences Inc,None,High Rise,1860,Lawrence Avenue East,Toronto,M1R 5B1,Yes,No,Yes,Yes,Yes,No,No,No,No,Yes,No,No,No,No,No,Yes,No,Yes,No,Yes,No,Senior 59+,None,1860-Lawrence-Avenue-East-BuildingExterior.jpg,-79.30308064,43.74407061
264,Pelham Park Gardens Apartments,61 Pelham Park Gardens,9,TCHC,Toronto Community Housing ,https://www.torontohousing.ca/rent,High Rise,61,Pelham Park Gardens,Toronto,M6N 1A6,No,No,Yes,Yes,Yes,Yes,Yes,Yes,No,Yes,No,No,No,No,No,Yes,Yes,Yes,No,No,Yes,None,None,61-Pelham-Park-Gardens-BuildingExterior.jpg,-79.45779566,43.66925972
265,Vilnius Manor,1700 Bloor Street West,4,PNP,Toronto Lithuanian Senior Citizens Inc,None,High Rise,1700,Bloor Street West,Toronto,M6P 4C3,Yes,No,Yes,Yes,Yes,No,No,No,No,Yes,No,No,Yes,No,No,Yes,Yes,No,No,No,Yes,"Senior 59+, Lithuanian Heritage",None,1700-Bloor-Street-West-BuildingExterior.jpg,-79.45842609,43.65540421
266,Dorothy Klein Seniors,668 Roselawn Avenue,8,PNP,Dorothy Klein Seniors Housing Inc,None,High Rise,668,Roselawn Avenue,Toronto,M3N 3A6,Yes,No,No,Yes,Yes,No,No,No,No,Yes,No,No,Yes,No,No,Yes,Yes,Yes,No,No,Yes,None,None,668-Roselawn-Avenue-BuildingExterior.jpg,-79.42473634,43.70577455
267,Pelham Park Gardens Townhouses,135-171 Osler St||52-114 Pelham Ave||1-60 Pelham Park Gardens,9,TCHC,Toronto Community Housing ,https://www.torontohousing.ca/rent,Townhouse/ Walk-up,61,Pelham Park Gardens,Toronto,M6N 1A6,No,No,Yes,Yes,Yes,Yes,Yes,Yes,No,Yes,No,No,No,No,No,Yes,Yes,Yes,No,No,Yes,None,None,135-171-Osler-Street-BuildingExterior.jpg,-79.45779566,43.66925972
268,Villa Otthon Lambton Apartments,4049 Dundas Street West,4,PNP,Villa Otthon Non Profit Corporation,None,High Rise,4049,Dundas Street West,Toronto,M6S 4Z5,No,No,No,Yes,Yes,Yes,No,No,No,Yes,No,No,No,No,No,Yes,Yes,Yes,No,No,No,None,None,4049-Dundas-Street-West-BuildingExterior.jpg,-79.50372027,43.66345535
269,Pembroke Mews Apartments,200 Sherbourne Street||29-35 Pembroke Street,13,TCHC,Toronto Community Housing ,https://www.torontohousing.ca/rent,High Rise|Low Rise,29,Pembroke Street,Toronto,M5A 2N6,No,No,Yes,Yes,Yes,Yes,Yes,Yes,No,No,No,No,No,No,Yes,Yes,Yes,Yes,No,No,Yes,None,None,29-35-Pembroke-Street-BuildingExterior.jpg,-79.37162705,43.65705142
270,Villa Otthon Lambton Townhouses,4050-4064 Old Dundas Street West,4,PNP,Villa Otthon Non Profit Corporation,None,Townhouse/ Walk-up,4050-4064,Old Dundas Street West,Toronto,M6S 2R6,No,No,No,No,No,No,Yes,No,No,Yes,No,No,No,No,No,Yes,Yes,Yes,No,No,No,None,None,None,-79.50372027,43.66345535
271,Pembroke Street,21-25 Pembroke St,13,TCHC,Toronto Community Housing ,https://www.torontohousing.ca/rent,Townhouse/ Walk-up,21,Pembroke Street,Toronto,M5A 2N6,No,No,No,Yes,Yes,No,No,No,No,No,No,No,No,Yes,No,No,No,No,No,No,Yes,None,None,21-25-Pembroke-Street-BuildingExterior.jpg,-79.3715443,43.65685394
272,Jack Goodlad Sr Citizen Residences Corp.,3010 Lawrence Avenue East,21,PNP,Jack Goodlad Senior Citizen Residences Corporation,None,High Rise,3010,Lawrence Avenue East,Toronto,M1P 4Y6,Yes,No,No,Yes,Yes,No,No,No,No,Yes,No,No,Yes,No,No,Yes,Yes,Yes,Yes,Yes,No,Senior 59+,None,3010-Lawrence-Avenue-East-BuildingExterior.jpg,-79.24995508,43.75594214
273,Pendrith Park,177 Pendrith Street,11,TCHC,Toronto Community Housing ,https://www.torontohousing.ca/rent,Townhouse/ Walk-up,177,Pendrith Street,Toronto,M6G 1S1,No,No,No,Yes,Yes,Yes,No,No,No,Yes,No,No,No,No,No,Yes,No,No,No,No,Yes,None,None,177-Pendrith-Street-BuildingExterior.jpg,-79.42565567,43.6655482
274,B'Nai Brith Canada Senior Citizens Foundation,4300 Bathurst Street,6,PNP,B'Nai Brith Canada Senior Citizens Residential Program,None,High Rise,4300,Bathurst Street,Toronto,M3H 6A4,Yes,No,No,Yes,Yes,No,No,No,No,Yes,No,No,No,No,No,Yes,Yes,Yes,Yes,No,Yes,Senior 59+,None,4300-Bathurst-Street-BuildingExterior.jpg,-79.43822834,43.75289099
275,Phin Park,2 Phin Avenue,14,TCHC,Toronto Community Housing ,https://www.torontohousing.ca/rent,Townhouse/ Walk-up,2,Phin Avenue,Toronto,M4J 3T2,No,No,No,Yes,No,No,Yes,No,No,No,No,No,No,No,No,Yes,No,No,No,No,Yes,None,None,2-Phin-Avenue-BuildingExterior.jpg,-79.3358716,43.67880506
276,Terra Bella Family Complex,24 Shaw Street,10,PNP,Terra Bella Non Profit Housing Corporation,None,High Rise,24,Shaw Street,Toronto,M6J 3W1,No,No,No,Yes,Yes,No,No,No,No,No,No,No,Yes,No,No,Yes,Yes,Yes,Yes,No,No,None,None,24-Shaw-Street-BuildingExterior.jpg,-79.41608435,43.64233636
277,Pinefield/Marie Fernanda,900-910 Queens Plate Drive,1,TCHC,Toronto Community Housing,https://www.torontohousing.ca/rent,High Rise,900,Queens Plate Drive,Toronto,M9W 6Z4,No,No,No,Yes,Yes,Yes,No,No,No,Yes,No,No,No,No,No,Yes,Yes,Yes,No,No,Yes,None,None,900-910-Queens-Plate-Drive-BuildingExterior.jpg,-79.60344868,43.71992909
278,Queen Victoria,40-56 Queen Victoria Street,14,TCHC,Toronto Community Housing ,https://www.torontohousing.ca/rent,Low Rise,40,Queen Victoria Street,Toronto,M4J 1E9,No,No,No,No,Yes,No,No,No,No,Yes,No,No,No,No,No,No,No,No,No,No,Yes,None,None,56-Queen-Victoria-Street-BuildingExterior.jpg,-79.33471664,43.67743045
279,Loyola Arrupe Corporation,1709 Bloor Street West||515 Parkside Drive,4,PNP,Loyola Arrupe Corporation,None,Low Rise,1709,Bloor Street West,Toronto,M6P 4E5,Yes,No,Yes,Yes,Yes,No,No,No,No,Yes,No,No,Yes,No,No,Yes,Yes,Yes,No,No,No,Senior 59+,None,1709-Bloor-Street-West-BuildingExterior.jpg,-79.45891655,43.65457006
280,Queen/Vanauley Project Apartments,20 Vanauley Street,10,TCHC,Toronto Community Housing ,https://www.torontohousing.ca/rent,High Rise,20,Vanauley Street,Toronto,M5T 2H4,No,No,No,Yes,Yes,Yes,No,No,No,Yes,No,No,Yes,No,No,No,Yes,Yes,No,No,Yes,None,None,20-Vanauley-Street-BuildingExterior.jpg,-79.39898565,43.64893149
281,St. Mark's Court,7 The Donway East,16,PNP,St Mark's Don Mills Non-Profit Housing Corp,None,High Rise,7,The Donway East,Toronto,M3C 3P8,No,No,No,Yes,Yes,Yes,Yes,No,No,Yes,No,No,No,No,No,Yes,Yes,Yes,No,No,Yes,None,None,7-The-Donway-East-BuildingExterior.jpg,-79.33956136,43.73324729
282,Queen/Vanauley Project Townhouses,21-23A Augusta Avenue,10,TCHC,Toronto Community Housing ,https://www.torontohousing.ca/rent,Townhouse/ Walk-up,20,Vanauley Street,Toronto,M5T 2H4,No,No,No,Yes,Yes,Yes,No,No,No,Yes,No,No,Yes,No,No,No,Yes,Yes,No,No,Yes,None,None,21-23A-Augusta-Avenue-BuildingExterior.jpg,-79.39898565,43.64893149
283,The Ceceila Murphy Building,11 Coatsworth Crescent,19,PNP,Neighbourhood Link,None,High Rise,11,Coatsworth Crescent,Toronto,M4C 5P8,Yes,No,No,Yes,Yes,No,No,No,No,Yes,No,No,Yes,No,No,Yes,Yes,Yes,No,No,Yes,Senior 59+,None,11-Coatsworth-Crescent-BuildingExterior.jpg,-79.32109772,43.6791497
284,Queens Quay West,679 Queen's Quay West,10,TCHC,Toronto Community Housing ,https://www.torontohousing.ca/rent,High Rise,679,Queen's Quay West,Toronto,M5V 3A9,No,No,Yes,Yes,Yes,Yes,No,No,No,Yes,No,No,Yes,No,No,Yes,No,No,No,No,Yes,None,None,679-Queen's-Quay-West-BuildingExterior.jpg,-79.39997992,43.63449645
285,Masaryktown Non-Profit Residences Inc,450 Scarborough Golf Club Road,24,PNP,Masaryktown Non-Profit Residences Inc.,None,Low Rise,450A,Scarborough Golf Club Road,Toronto,M1G 3V6,No,No,No,Yes,Yes,Yes,No,No,No,No,No,Yes,Yes,No,No,Yes,Yes,Yes,Yes,No,No,None,None,450-Scarborough-Gulf-Club-Road-BuildingExterior.jpg,-79.21752176,43.7552583
286,Queensway/Windermere,1-154 Swansea Mews,4,TCHC,Toronto Community Housing ,https://www.torontohousing.ca/rent,Townhouse/ Walk-up,21,Windermere Avenue,Toronto,M6S 4V2,No,No,No,No,No,Yes,Yes,No,No,Yes,No,No,No,No,No,Yes,No,No,No,No,Yes,None,None,1-154-Swansea-Mews-BuildingExterior.jpg,-79.47007012,43.63853768
287,Walton Place,835 Birchmount Road,20,PNP,Walton Place Scarborough Inc Non-Profit Housing Project,None,High Rise,835,Birchmount Road,Toronto,M1K 5K1,No,No,Yes,Yes,Yes,Yes,No,No,No,Yes,No,No,Yes,No,No,Yes,Yes,Yes,Yes,No,No,None,None,835-Birchmount-Road-BuildingExterior.jpg,-79.27741451,43.7293378
288,Riverdale Acres,230 River Street,13,TCHC,Toronto Seniors Housing Corporation ,https://www.torontohousing.ca/rent,Townhouse/ Walk-up,230,River Street,Toronto,M5A 3R1,Yes,No,Yes,No,No,No,No,No,No,No,No,No,No,No,No,Yes,No,No,No,No,Yes,Senior 59+,None,230-River-Street-BuildingExterior.jpg,-79.35984825,43.66425409
289,The Antonio Mazzotta Building,88 Humber College Boulevard,1,PNP,Acli Etobicoke Community Homes,None,Low Rise,88,Humber College Boulevard,Toronto,M9V 5G3,Yes,No,No,Yes,Yes,No,No,No,No,No,No,No,No,No,No,Yes,Yes,Yes,Yes,No,No,Senior 59+,None,88-Humber-College-Boulevard-BuildingExterior.jpg,-79.59865393,43.73173485
290,Riverdale Mews,436 Leslie Street,14,TCHC,Toronto Community Housing ,https://www.torontohousing.ca/rent,Townhouse/ Walk-up,436,Leslie Street,Toronto,M4M 3K1,No,No,No,No,No,Yes,No,No,No,Yes,No,No,No,No,No,Yes,No,No,No,No,Yes,None,None,436-Leslie-Street-BuildingExterior.jpg,-79.33494479,43.67255263
291,Thorncliffe Park Apartments,23 Thorncliffe Park Drive,15,PNP,Inter Faith Homes Centenary Corporation,None,High Rise,23,Thorncliffe Park Drive,Toronto,M4H 1H7,No,No,No,Yes,Yes,No,No,No,No,Yes,No,No,Yes,No,No,Yes,Yes,Yes,Yes,No,No,None,None,23-Thorncliffe-Park-Drive-BuildingExterior.jpg,-79.34746238,43.70314973
292,Rivertowne Apartments,50 Matilda Street,14,TCHC,Toronto Community Housing ,https://www.torontohousing.ca/rent,Low Rise,1,Donmount Court,Toronto,M4M 2C3,No,No,Yes,Yes,Yes,Yes,Yes,Yes,No,Yes,No,No,No,No,No,Yes,No,No,No,No,Yes,None,None,50-Matilda-Street-BuildingExterior.jpg,-79.35215,43.66095
293,McClintock Manor,730 Pape Avenue,14,PNP,Nisbet Lodge Corp,None,High Rise,730,Pape Avenue,Toronto,M4K 3Z4,Yes,No,Yes,Yes,Yes,No,No,No,No,Yes,Yes,No,Yes,No,No,Yes,Yes,Yes,Yes,No,No,Christian - Senior 59+,None,730-Pape-Avenue-BuildingExterior.jpg,-79.34569432,43.68032342
294,Rivertowne Townhouses,45-51 Carroll Street|1-8 Doris Anderson Court||829 Dundas Street East||32-48 Hamilton Street||33-89 Munro Street,14,TCHC,Toronto Community Housing ,https://www.torontohousing.ca/rent,Townhouse/ Walk-up,1,Donmount Court,Toronto,M4M 2C3,No,No,Yes,Yes,Yes,Yes,Yes,Yes,No,Yes,No,No,No,No,No,Yes,No,No,No,No,Yes,None,None,47-Carroll-Street-BuildingExterior.jpg,-79.35215,43.66095
295,The Avenel Non Profit Housing Corporation,262 Ridley Blvd,8,PNP,Kehilla Residential Programme,None,High Rise,262,Ridley Blvd,Toronto,M5M 4N6,No,No,No,Yes,Yes,Yes,No,No,No,No,Yes,No,Yes,No,No,Yes,Yes,Yes,Yes,No,No,None,None,262-Ridley-Boulevard-BuildingExterior.jpg,-79.42399685,43.73998503
296,Robert J Smith Apartments,101-121 Kendleton Drive,1,TCHC,Toronto Community Housing ,https://www.torontohousing.ca/rent,High Rise,101,Kendleton Drive,Toronto,M9V 1V1,No,No,Yes,Yes,No,No,No,No,No,Yes,No,No,Yes,No,No,Yes,Yes,No,No,No,Yes,None,None,101-Kendleton-Drive-BuildingExterior.jpg,-79.58092517,43.73835787
297,Our Lady Of Victory Sr Citizens Residence,200 Dora Spencer Road,5,PNP,Our Lady Of Victory Senior Citizens Residence York Inc,None,High Rise,200,Dora Spencer Road,Toronto,M6M 5G5,No,No,No,Yes,Yes,No,No,No,No,No,No,No,Yes,No,No,Yes,Yes,Yes,Yes,No,Yes,None,None,200-Dora-Spencer-Road-BuildingExterior.jpg,-79.50507107,43.69176061
298,Roding Park Place,1286 Wilson Avenue,6,TCHC,Toronto Community Housing ,https://www.torontohousing.ca/rent,High Rise,1286,Wilson Avenue,Toronto,M3M 3G4,No,No,No,Yes,Yes,No,No,No,No,Yes,No,Yes,Yes,No,No,Yes,Yes,Yes,No,No,Yes,None,None,1286-Wilson-Avenue-BuildingExterior.jpg,-79.49384139,43.72429473
299,Our Saviour Thistletown Lutheran Lodge,2715 Islington Avenue,1,PNP,Our Saviour Thistletown Lutheran Lodge,None,High Rise,2715,Islington Avenue,Toronto,M9V 5H3,Yes,No,No,Yes,Yes,No,No,No,No,Yes,No,No,Yes,No,No,Yes,Yes,Yes,Yes,No,No,Senior 59+,None,2715-Islington-Avenue-BuildingExterior.jpg,-79.56639863,43.74167369
300,Roselawn/Marlee,855 Roselawn Avenue,8,TCHC,Toronto Community Housing ,https://www.torontohousing.ca/rent,High Rise,855,Roselawn Avenue,Toronto,M6B 4C3,No,No,Yes,Yes,Yes,No,No,No,No,Yes,No,No,No,No,No,Yes,Yes,Yes,No,No,Yes,None,None,855-Roselawn-Avenue-BuildingExterior.jpg,-79.44147707,43.70187944
301,Canadian Martyrs Seniors Residence,1430 Woodbine Avenue,19,PNP,THE ARCHDIOCESE OF TORONTO,None,High Rise,1430,Woodbine Avenue,Toronto,M4C 5R7,Yes,No,No,Yes,Yes,No,No,No,No,Yes,No,No,Yes,No,No,Yes,Yes,Yes,No,No,Yes,Senior 59+,None,1430-Woodbine-Avenue-BuildingExterior.jpg,-79.31879616,43.69857617
302,Rowntree Manor,2765 Islington Avenue,1,TCHC,Toronto Community Housing ,https://www.torontohousing.ca/rent,High Rise,2765,Islington Avenue,Toronto,M9V 5C2,No,No,No,Yes,Yes,Yes,No,No,No,Yes,No,No,Yes,No,No,Yes,Yes,No,No,No,Yes,None,None,2765-Islington-Avenue-BuildingExterior.jpg,-79.56699138,43.74357491
303,Bonar-Parkdale Place,240 Dunn Avenue,4,PNP,Bonar-Parkdale Senior Citizens Non-Profit Housing Corp,None,High Rise,240,Dunn Avenue,Toronto,M6K 3K6,Yes,No,No,Yes,Yes,No,No,No,No,No,No,No,Yes,No,No,Yes,Yes,Yes,Yes,No,Yes,Senior 59+,None,240-Dunn-Ave-BuildingExterior.jpg,-79.43435227,43.6398057
304,Maple Leaf Drive Seniors,10 Maple Leaf Drive,5,PNP,Maple Leaf Drive Seniors Non-Profit Residential Corporation,None,High Rise,10,Maple Leaf Drive,Toronto,M6L 3E3,Yes,No,No,Yes,Yes,No,No,No,No,No,No,No,Yes,No,No,Yes,Yes,Yes,No,No,No,Senior 59+,None,10-Maple-Leaf-Drive-BuildingExterior.jpg,-79.50484405,43.70951754
305,Roywood Drive,237-239 Roywood Drive,16,TCHC,Toronto Community Housing ,https://www.torontohousing.ca/rent,Townhouse/ Walk-up,235,Roywood Drive,Toronto,M3A 2E8,No,No,No,No,Yes,Yes,No,No,No,No,No,No,No,No,No,No,No,No,No,No,Yes,None,None,235-239-Roywood-Drive-BuildingExterior.jpg,-79.33573098,43.76324964
306,Northminster Residences Of Toronto,2214 Keele Street,5,PNP,Northminster Residences Of Toronto,None,High Rise,2214,Keele Street,Toronto,M6M 5G6,No,No,No,Yes,Yes,Yes,No,No,No,Yes,No,No,Yes,No,No,Yes,Yes,Yes,Yes,No,Yes,None,None,2214-Keele-Street-BuildingExterior.jpg,-79.47692203,43.70092092
307,Roywood Drive Central Hall,235-257 Roywood Drive,16,TCHC,Toronto Community Housing ,https://www.torontohousing.ca/rent,Townhouse/ Walk-up,235,Roywood Drive,Toronto,M3A 2E8,No,No,No,No,Yes,Yes,No,No,No,No,No,No,No,No,No,No,No,No,No,No,Yes,None,None,235-257-Roywood-Drive-BuildingExterior.jpg,-79.33573098,43.76324964
308,St. David's Towers,51 Donlands Avenue,14,PNP,St. David's Tower  (Toronto)  Corp.,None,High Rise,51,Donlands Avenue,Toronto,M4J 3N5,No,No,No,Yes,Yes,No,No,No,No,Yes,No,No,No,No,No,Yes,Yes,Yes,No,No,No,None,None,51-Donlands-Avenue-BuildingExterior.jpg,-79.3372647,43.68117754
309,Sackville Street,123 Sackville Street,13,TCHC,Toronto Community Housing ,https://www.torontohousing.ca/rent,Townhouse/ Walk-up,123,Sackville Street,Toronto,M5A 3E8,No,No,Yes,No,No,No,No,No,No,No,No,No,No,No,No,No,No,No,No,No,Yes,None,None,123-Sackville-Street-BuildingExterior.jpg,-79.36152767,43.65708981
